{
"type": "FeatureCollection",
"name": "Hazardous_Materials_Storage_Sites",
"crs": { "type": "name", "properties": { "name": "urn:ogc:def:crs:OGC:1.3:CRS84" } },
"features": [
{ "type": "Feature", "properties": { "FacilityID": 415, "FacilityName": "THE WILLAMETTE VALLEY COMPANY LLC", "SiteAddress": "585 MCKINLEY ST EUGENE Oregon 97402", "Latitude": 44.05375, "Longitude": -123.1295, "ObjectId": 1 }, "geometry": { "type": "Point", "coordinates": [ -123.1295, 44.05375 ] } },
{ "type": "Feature", "properties": { "FacilityID": 415, "FacilityName": "THE WILLAMETTE VALLEY COMPANY LLC", "SiteAddress": "660 MCKINLEY ST EUGENE Oregon 97402", "Latitude": 44.05302, "Longitude": -123.1303, "ObjectId": 2 }, "geometry": { "type": "Point", "coordinates": [ -123.1303, 44.05302 ] } },
{ "type": "Feature", "properties": { "FacilityID": 415, "FacilityName": "THE WILLAMETTE VALLEY COMPANY LLC", "SiteAddress": "680 MCKINLEY ST EUGENE Oregon 97402", "Latitude": 44.0525, "Longitude": -123.1304, "ObjectId": 3 }, "geometry": { "type": "Point", "coordinates": [ -123.1304, 44.0525 ] } },
{ "type": "Feature", "properties": { "FacilityID": 2621, "FacilityName": "PELLA VINYL", "SiteAddress": "18722 NE WILKES RD PORTLAND Oregon 97230", "Latitude": 45.54059, "Longitude": -122.4709, "ObjectId": 4 }, "geometry": { "type": "Point", "coordinates": [ -122.4709, 45.54059 ] } },
{ "type": "Feature", "properties": { "FacilityID": 2141, "FacilityName": "M & N PLASTICS", "SiteAddress": "49 SE 97TH AVE PORTLAND Oregon 97216", "Latitude": 45.52231, "Longitude": -122.5634, "ObjectId": 5 }, "geometry": { "type": "Point", "coordinates": [ -122.5634, 45.52231 ] } },
{ "type": "Feature", "properties": { "FacilityID": 1271, "FacilityName": "VIGOR WORKS LLC", "SiteAddress": "14885 SE 98TH CT CLACKAMAS Oregon 97015", "Latitude": 45.41549, "Longitude": -122.559, "ObjectId": 6 }, "geometry": { "type": "Point", "coordinates": [ -122.559, 45.41549 ] } },
{ "type": "Feature", "properties": { "FacilityID": 4950, "FacilityName": "JELD-WEN", "SiteAddress": "3307 LAKEPORT BLVD KLAMATH FALLS Oregon 97601", "Latitude": 42.25196, "Longitude": -121.8025, "ObjectId": 7 }, "geometry": { "type": "Point", "coordinates": [ -121.8025, 42.25196 ] } },
{ "type": "Feature", "properties": { "FacilityID": 4950, "FacilityName": "JELD-WEN", "SiteAddress": "3737 LAKEPORT BLVD KLAMATH FALLS Oregon 97601", "Latitude": 42.25516, "Longitude": -121.8033, "ObjectId": 8 }, "geometry": { "type": "Point", "coordinates": [ -121.8033, 42.25516 ] } },
{ "type": "Feature", "properties": { "FacilityID": 3025, "FacilityName": "OREGON TREAD RUBBER CO", "SiteAddress": "68 WALLIS EUGENE Oregon 97402", "Latitude": 44.05904, "Longitude": -123.1551, "ObjectId": 9 }, "geometry": { "type": "Point", "coordinates": [ -123.1551, 44.05904 ] } },
{ "type": "Feature", "properties": { "FacilityID": 4950, "FacilityName": "JELD-WEN", "SiteAddress": "4013 LAKEPORT BLVD KLAMATH FALLS Oregon 97601", "Latitude": 42.2576, "Longitude": -121.8043, "ObjectId": 10 }, "geometry": { "type": "Point", "coordinates": [ -121.8043, 42.2576 ] } },
{ "type": "Feature", "properties": { "FacilityID": 4950, "FacilityName": "JELD-WEN", "SiteAddress": "407 HARBOR ISLES BLVD KLAMATH FALLS Oregon 97601", "Latitude": 42.25023, "Longitude": -121.8048, "ObjectId": 11 }, "geometry": { "type": "Point", "coordinates": [ -121.8048, 42.25023 ] } },
{ "type": "Feature", "properties": { "FacilityID": 6160, "FacilityName": "U OF O", "SiteAddress": "2735 LEO HARRIS PKWY EUGENE Oregon 97401", "Latitude": 44.05789, "Longitude": -123.0713, "ObjectId": 12 }, "geometry": { "type": "Point", "coordinates": [ -123.0713, 44.05789 ] } },
{ "type": "Feature", "properties": { "FacilityID": 4950, "FacilityName": "JELD-WEN", "SiteAddress": "601 HARBOR ISLES BLVD KLAMATH FALLS Oregon 97601", "Latitude": 42.25338, "Longitude": -121.8092, "ObjectId": 13 }, "geometry": { "type": "Point", "coordinates": [ -121.8092, 42.25338 ] } },
{ "type": "Feature", "properties": { "FacilityID": 2141, "FacilityName": "M & N PLASTICS", "SiteAddress": "9750 E BURNSIDE PORTLAND Oregon 97216", "Latitude": 45.52254, "Longitude": -122.5632, "ObjectId": 14 }, "geometry": { "type": "Point", "coordinates": [ -122.5632, 45.52254 ] } },
{ "type": "Feature", "properties": { "FacilityID": 6736, "FacilityName": "Roseburg Forest Products", "SiteAddress": "10500 OLD HWY 99 S DILLARD Oregon 97432", "Latitude": 43.08895, "Longitude": -123.4169, "ObjectId": 15 }, "geometry": { "type": "Point", "coordinates": [ -123.4169, 43.08895 ] } },
{ "type": "Feature", "properties": { "FacilityID": 6736, "FacilityName": "Roseburg Forest Products", "SiteAddress": "10525 OLD HWY 99 S DILLARD Oregon 97432", "Latitude": 43.08864, "Longitude": -123.4167, "ObjectId": 16 }, "geometry": { "type": "Point", "coordinates": [ -123.4167, 43.08864 ] } },
{ "type": "Feature", "properties": { "FacilityID": 6160, "FacilityName": "U OF O", "SiteAddress": "2755 LEO HARRIS PKWY EUGENE Oregon 97403", "Latitude": 44.05738, "Longitude": -123.0689, "ObjectId": 17 }, "geometry": { "type": "Point", "coordinates": [ -123.0689, 44.05738 ] } },
{ "type": "Feature", "properties": { "FacilityID": 6736, "FacilityName": "Roseburg Forest Products", "SiteAddress": "10550 OLD HWY 99 S DILLARD Oregon 97432", "Latitude": 43.08849, "Longitude": -123.4162, "ObjectId": 18 }, "geometry": { "type": "Point", "coordinates": [ -123.4162, 43.08849 ] } },
{ "type": "Feature", "properties": { "FacilityID": 6736, "FacilityName": "Roseburg Forest Products", "SiteAddress": "10599 OLD HWY 99 S DILLARD Oregon 97432", "Latitude": 43.08751, "Longitude": -123.4157, "ObjectId": 19 }, "geometry": { "type": "Point", "coordinates": [ -123.4157, 43.08751 ] } },
{ "type": "Feature", "properties": { "FacilityID": 6736, "FacilityName": "Roseburg Forest Products", "SiteAddress": "10600 OLD HWY 99 S DILLARD Oregon 97432", "Latitude": 43.08804, "Longitude": -123.4155, "ObjectId": 20 }, "geometry": { "type": "Point", "coordinates": [ -123.4155, 43.08804 ] } },
{ "type": "Feature", "properties": { "FacilityID": 6736, "FacilityName": "Roseburg Forest Products", "SiteAddress": "10650 OLD HWY 99S DILLARD Oregon 97432", "Latitude": 43.08759, "Longitude": -123.4148, "ObjectId": 21 }, "geometry": { "type": "Point", "coordinates": [ -123.4148, 43.08759 ] } },
{ "type": "Feature", "properties": { "FacilityID": 7428, "FacilityName": "TREE TOP INC", "SiteAddress": "641 S GRAPE ST MEDFORD Oregon 97501", "Latitude": 42.31876, "Longitude": -122.8688, "ObjectId": 22 }, "geometry": { "type": "Point", "coordinates": [ -122.8688, 42.31876 ] } },
{ "type": "Feature", "properties": { "FacilityID": 7428, "FacilityName": "TREE TOP INC", "SiteAddress": "691 S FIR ST MEDFORD Oregon 97501", "Latitude": 42.31881, "Longitude": -122.8671, "ObjectId": 23 }, "geometry": { "type": "Point", "coordinates": [ -122.8671, 42.31881 ] } },
{ "type": "Feature", "properties": { "FacilityID": 7428, "FacilityName": "TREE TOP INC", "SiteAddress": "715 S GRAPE ST MEDFORD Oregon 97501", "Latitude": 42.31773, "Longitude": -122.8678, "ObjectId": 24 }, "geometry": { "type": "Point", "coordinates": [ -122.8678, 42.31773 ] } },
{ "type": "Feature", "properties": { "FacilityID": 12381, "FacilityName": "SUN GRO HORTICULTURE INC", "SiteAddress": "19287 HWY 99E HUBBARD Oregon 97032", "Latitude": 45.19796, "Longitude": -122.7865, "ObjectId": 25 }, "geometry": { "type": "Point", "coordinates": [ -122.7865, 45.19796 ] } },
{ "type": "Feature", "properties": { "FacilityID": 13502, "FacilityName": "SALEM CITY OF", "SiteAddress": "1480 20TH ST SE SALEM Oregon 97302", "Latitude": 44.92295, "Longitude": -123.0199, "ObjectId": 26 }, "geometry": { "type": "Point", "coordinates": [ -123.0199, 44.92295 ] } },
{ "type": "Feature", "properties": { "FacilityID": 13502, "FacilityName": "SALEM CITY OF", "SiteAddress": "1504 22ND ST SE SALEM Oregon 97302", "Latitude": 44.92208, "Longitude": -123.0178, "ObjectId": 27 }, "geometry": { "type": "Point", "coordinates": [ -123.0178, 44.92208 ] } },
{ "type": "Feature", "properties": { "FacilityID": 13502, "FacilityName": "SALEM CITY OF", "SiteAddress": "1505 22ND ST SE SALEM Oregon 97302", "Latitude": 44.92251, "Longitude": -123.0185, "ObjectId": 28 }, "geometry": { "type": "Point", "coordinates": [ -123.0185, 44.92251 ] } },
{ "type": "Feature", "properties": { "FacilityID": 13502, "FacilityName": "SALEM CITY OF", "SiteAddress": "1510 22ND ST SE SALEM Oregon 97302", "Latitude": 44.92268, "Longitude": -123.0165, "ObjectId": 29 }, "geometry": { "type": "Point", "coordinates": [ -123.0165, 44.92268 ] } },
{ "type": "Feature", "properties": { "FacilityID": 15154, "FacilityName": "DAMEROW FORD", "SiteAddress": "12325 SW CANYON RD BEAVERTON Oregon 97005", "Latitude": 45.48873, "Longitude": -122.8034, "ObjectId": 30 }, "geometry": { "type": "Point", "coordinates": [ -122.8034, 45.48873 ] } },
{ "type": "Feature", "properties": { "FacilityID": 13556, "FacilityName": "METOLIUS MEADOWS PROP OWN ASSN", "SiteAddress": "26246 CAMP SHERMAN RD CAMP SHERMAN Oregon 97730-0696", "Latitude": 44.44482, "Longitude": -121.6545, "ObjectId": 31 }, "geometry": { "type": "Point", "coordinates": [ -121.6545, 44.44482 ] } },
{ "type": "Feature", "properties": { "FacilityID": 16401, "FacilityName": "WILBUR - ELLIS COMPANY LLC", "SiteAddress": "1370 COMMERCE WAY WOODBURN Oregon 97071", "Latitude": 45.14742, "Longitude": -122.8479, "ObjectId": 32 }, "geometry": { "type": "Point", "coordinates": [ -122.8479, 45.14742 ] } },
{ "type": "Feature", "properties": { "FacilityID": 16401, "FacilityName": "WILBUR - ELLIS COMPANY LLC", "SiteAddress": "103 HARDCASTLE AVE WOODBURN Oregon 97071", "Latitude": 45.14654, "Longitude": -122.8501, "ObjectId": 33 }, "geometry": { "type": "Point", "coordinates": [ -122.8501, 45.14654 ] } },
{ "type": "Feature", "properties": { "FacilityID": 23545, "FacilityName": "U OF O", "SiteAddress": "1109 OLD CAMPUS LN EUGENE Oregon 97403", "Latitude": 44.04714, "Longitude": -123.0768, "ObjectId": 34 }, "geometry": { "type": "Point", "coordinates": [ -123.0768, 44.04714 ] } },
{ "type": "Feature", "properties": { "FacilityID": 23545, "FacilityName": "U OF O", "SiteAddress": "1155 FRANKLIN BLVD EUGENE Oregon 97403", "Latitude": 44.04847, "Longitude": -123.0742, "ObjectId": 35 }, "geometry": { "type": "Point", "coordinates": [ -123.0742, 44.04847 ] } },
{ "type": "Feature", "properties": { "FacilityID": 23545, "FacilityName": "U OF O", "SiteAddress": "1190 FRANKLIN BLVD EUGENE Oregon 97403", "Latitude": 44.04711, "Longitude": -123.0747, "ObjectId": 36 }, "geometry": { "type": "Point", "coordinates": [ -123.0747, 44.04711 ] } },
{ "type": "Feature", "properties": { "FacilityID": 23545, "FacilityName": "U OF O", "SiteAddress": "1201 OLD CAMPUS LN EUGENE Oregon 97403", "Latitude": 44.04662, "Longitude": -123.0765, "ObjectId": 37 }, "geometry": { "type": "Point", "coordinates": [ -123.0765, 44.04662 ] } },
{ "type": "Feature", "properties": { "FacilityID": 23545, "FacilityName": "U OF O", "SiteAddress": "1210 FRANKLIN BLVD EUGENE Oregon 97403", "Latitude": 44.04735, "Longitude": -123.0745, "ObjectId": 38 }, "geometry": { "type": "Point", "coordinates": [ -123.0745, 44.04735 ] } },
{ "type": "Feature", "properties": { "FacilityID": 23545, "FacilityName": "U OF O", "SiteAddress": "1225 KINCAID ST EUGENE Oregon 97403", "Latitude": 44.04632, "Longitude": -123.0782, "ObjectId": 39 }, "geometry": { "type": "Point", "coordinates": [ -123.0782, 44.04632 ] } },
{ "type": "Feature", "properties": { "FacilityID": 23545, "FacilityName": "U OF O", "SiteAddress": "1215 E 13TH AVE EUGENE Oregon 97403", "Latitude": 44.04581, "Longitude": -123.0742, "ObjectId": 40 }, "geometry": { "type": "Point", "coordinates": [ -123.0742, 44.04581 ] } },
{ "type": "Feature", "properties": { "FacilityID": 23545, "FacilityName": "U OF O", "SiteAddress": "1254 FRANKLIN BLVD EUGENE Oregon 97403", "Latitude": 44.04679, "Longitude": -123.0739, "ObjectId": 41 }, "geometry": { "type": "Point", "coordinates": [ -123.0739, 44.04679 ] } },
{ "type": "Feature", "properties": { "FacilityID": 23545, "FacilityName": "U OF O", "SiteAddress": "1222 E 13TH AVE EUGENE Oregon 97403", "Latitude": 44.04544, "Longitude": -123.0741, "ObjectId": 42 }, "geometry": { "type": "Point", "coordinates": [ -123.0741, 44.04544 ] } },
{ "type": "Feature", "properties": { "FacilityID": 23545, "FacilityName": "U OF O", "SiteAddress": "1275 FRANKLIN BLVD EUGENE Oregon 97403", "Latitude": 44.04742, "Longitude": -123.0734, "ObjectId": 43 }, "geometry": { "type": "Point", "coordinates": [ -123.0734, 44.04742 ] } },
{ "type": "Feature", "properties": { "FacilityID": 23545, "FacilityName": "U OF O", "SiteAddress": "1301 FRANKLIN BLVD EUGENE Oregon 97403", "Latitude": 44.04836, "Longitude": -123.072, "ObjectId": 44 }, "geometry": { "type": "Point", "coordinates": [ -123.072, 44.04836 ] } },
{ "type": "Feature", "properties": { "FacilityID": 23545, "FacilityName": "U OF O", "SiteAddress": "1255 E 13TH AVE EUGENE Oregon 97403", "Latitude": 44.04581, "Longitude": -123.0737, "ObjectId": 45 }, "geometry": { "type": "Point", "coordinates": [ -123.0737, 44.04581 ] } },
{ "type": "Feature", "properties": { "FacilityID": 23545, "FacilityName": "U OF O", "SiteAddress": "1317 FRANKLIN BLVD EUGENE Oregon 97403", "Latitude": 44.04731, "Longitude": -123.0729, "ObjectId": 46 }, "geometry": { "type": "Point", "coordinates": [ -123.0729, 44.04731 ] } },
{ "type": "Feature", "properties": { "FacilityID": 23545, "FacilityName": "U OF O", "SiteAddress": "1318 FRANKLIN BLVD EUGENE Oregon 97403", "Latitude": 44.04662, "Longitude": -123.0736, "ObjectId": 47 }, "geometry": { "type": "Point", "coordinates": [ -123.0736, 44.04662 ] } },
{ "type": "Feature", "properties": { "FacilityID": 23545, "FacilityName": "U OF O", "SiteAddress": "1295 FRANKLIN BLVD EUGENE Oregon 97403-5224", "Latitude": 44.04882, "Longitude": -123.0725, "ObjectId": 48 }, "geometry": { "type": "Point", "coordinates": [ -123.0725, 44.04882 ] } },
{ "type": "Feature", "properties": { "FacilityID": 23545, "FacilityName": "U OF O", "SiteAddress": "1321 KINCAID ST EUGENE Oregon 97403", "Latitude": 44.04528, "Longitude": -123.0782, "ObjectId": 49 }, "geometry": { "type": "Point", "coordinates": [ -123.0782, 44.04528 ] } },
{ "type": "Feature", "properties": { "FacilityID": 23545, "FacilityName": "U OF O", "SiteAddress": "1320 E 15TH AVE EUGENE Oregon 97403", "Latitude": 44.04308, "Longitude": -123.0729, "ObjectId": 50 }, "geometry": { "type": "Point", "coordinates": [ -123.0729, 44.04308 ] } },
{ "type": "Feature", "properties": { "FacilityID": 23545, "FacilityName": "U OF O", "SiteAddress": "1329 FRANKLIN BLVD EUGENE Oregon 97403", "Latitude": 44.04914, "Longitude": -123.0716, "ObjectId": 51 }, "geometry": { "type": "Point", "coordinates": [ -123.0716, 44.04914 ] } },
{ "type": "Feature", "properties": { "FacilityID": 23545, "FacilityName": "U OF O", "SiteAddress": "1365 AGATE ST EUGENE Oregon 97403", "Latitude": 44.04477, "Longitude": -123.0688, "ObjectId": 52 }, "geometry": { "type": "Point", "coordinates": [ -123.0688, 44.04477 ] } },
{ "type": "Feature", "properties": { "FacilityID": 23545, "FacilityName": "U OF O", "SiteAddress": "1333 E 15TH AVE EUGENE Oregon 97403", "Latitude": 44.04405, "Longitude": -123.0724, "ObjectId": 53 }, "geometry": { "type": "Point", "coordinates": [ -123.0724, 44.04405 ] } },
{ "type": "Feature", "properties": { "FacilityID": 23545, "FacilityName": "U OF O", "SiteAddress": "1383 FRANKLIN BLVD EUGENE Oregon 97403", "Latitude": 44.04879, "Longitude": -123.0711, "ObjectId": 54 }, "geometry": { "type": "Point", "coordinates": [ -123.0711, 44.04879 ] } },
{ "type": "Feature", "properties": { "FacilityID": 23545, "FacilityName": "U OF O", "SiteAddress": "1371 E 13TH AVE EUGENE Oregon 97403", "Latitude": 44.04593, "Longitude": -123.0726, "ObjectId": 55 }, "geometry": { "type": "Point", "coordinates": [ -123.0726, 44.04593 ] } },
{ "type": "Feature", "properties": { "FacilityID": 23545, "FacilityName": "U OF O", "SiteAddress": "1425 E 13TH AVE EUGENE Oregon 97403", "Latitude": 44.04595, "Longitude": -123.072, "ObjectId": 56 }, "geometry": { "type": "Point", "coordinates": [ -123.072, 44.04595 ] } },
{ "type": "Feature", "properties": { "FacilityID": 23545, "FacilityName": "U OF O", "SiteAddress": "1450 13TH AVE EUGENE Oregon 97403", "Latitude": 44.04527, "Longitude": -123.0716, "ObjectId": 57 }, "geometry": { "type": "Point", "coordinates": [ -123.0716, 44.04527 ] } },
{ "type": "Feature", "properties": { "FacilityID": 23545, "FacilityName": "U OF O", "SiteAddress": "1390 FRANKLIN BLVD EUGENE Oregon 97403-5224", "Latitude": 44.04646, "Longitude": -123.072, "ObjectId": 58 }, "geometry": { "type": "Point", "coordinates": [ -123.072, 44.04646 ] } },
{ "type": "Feature", "properties": { "FacilityID": 23545, "FacilityName": "U OF O", "SiteAddress": "1501 KINCAID ST EUGENE Oregon 97403", "Latitude": 44.04318, "Longitude": -123.0777, "ObjectId": 59 }, "geometry": { "type": "Point", "coordinates": [ -123.0777, 44.04318 ] } },
{ "type": "Feature", "properties": { "FacilityID": 23545, "FacilityName": "U OF O", "SiteAddress": "1430 JOHNSON LN EUGENE Oregon 97401", "Latitude": 44.04438, "Longitude": -123.077, "ObjectId": 60 }, "geometry": { "type": "Point", "coordinates": [ -123.077, 44.04438 ] } },
{ "type": "Feature", "properties": { "FacilityID": 23545, "FacilityName": "U OF O", "SiteAddress": "1525 UNIVERSITY ST EUGENE Oregon 97403", "Latitude": 44.04234, "Longitude": -123.074, "ObjectId": 61 }, "geometry": { "type": "Point", "coordinates": [ -123.074, 44.04234 ] } },
{ "type": "Feature", "properties": { "FacilityID": 23545, "FacilityName": "U OF O", "SiteAddress": "1571 ALDER ST EUGENE Oregon 97403", "Latitude": 44.04254, "Longitude": -123.0794, "ObjectId": 62 }, "geometry": { "type": "Point", "coordinates": [ -123.0794, 44.04254 ] } },
{ "type": "Feature", "properties": { "FacilityID": 23545, "FacilityName": "U OF O", "SiteAddress": "1590 E 13TH AVE EUGENE Oregon 97403", "Latitude": 44.04532, "Longitude": -123.0701, "ObjectId": 63 }, "geometry": { "type": "Point", "coordinates": [ -123.0701, 44.04532 ] } },
{ "type": "Feature", "properties": { "FacilityID": 23545, "FacilityName": "U OF O", "SiteAddress": "1580 E 15TH AVE EUGENE Oregon 97403", "Latitude": 44.04325, "Longitude": -123.07, "ObjectId": 64 }, "geometry": { "type": "Point", "coordinates": [ -123.07, 44.04325 ] } },
{ "type": "Feature", "properties": { "FacilityID": 23545, "FacilityName": "U OF O", "SiteAddress": "1657 AGATE ST EUGENE Oregon 97403", "Latitude": 44.04161, "Longitude": -123.0696, "ObjectId": 65 }, "geometry": { "type": "Point", "coordinates": [ -123.0696, 44.04161 ] } },
{ "type": "Feature", "properties": { "FacilityID": 23545, "FacilityName": "U OF O", "SiteAddress": "1593 E 15TH AVE EUGENE Oregon 97403", "Latitude": 44.04356, "Longitude": -123.0706, "ObjectId": 66 }, "geometry": { "type": "Point", "coordinates": [ -123.0706, 44.04356 ] } },
{ "type": "Feature", "properties": { "FacilityID": 23545, "FacilityName": "U OF O", "SiteAddress": "1679 AGATE ST EUGENE Oregon 97403", "Latitude": 44.04148, "Longitude": -123.0694, "ObjectId": 67 }, "geometry": { "type": "Point", "coordinates": [ -123.0694, 44.04148 ] } },
{ "type": "Feature", "properties": { "FacilityID": 23545, "FacilityName": "U OF O", "SiteAddress": "1787 AGATE ST EUGENE Oregon 97403", "Latitude": 44.04036, "Longitude": -123.0693, "ObjectId": 68 }, "geometry": { "type": "Point", "coordinates": [ -123.0693, 44.04036 ] } },
{ "type": "Feature", "properties": { "FacilityID": 23545, "FacilityName": "U OF O", "SiteAddress": "1695 E 15TH AVE EUGENE Oregon 97403", "Latitude": 44.04356, "Longitude": -123.0679, "ObjectId": 69 }, "geometry": { "type": "Point", "coordinates": [ -123.0679, 44.04356 ] } },
{ "type": "Feature", "properties": { "FacilityID": 24223, "FacilityName": "PACIFIC STAIR CO", "SiteAddress": "8692 STAIR WAY NE SALEM Oregon 97305", "Latitude": 45.04703, "Longitude": -122.9563, "ObjectId": 70 }, "geometry": { "type": "Point", "coordinates": [ -122.9563, 45.04703 ] } },
{ "type": "Feature", "properties": { "FacilityID": 23545, "FacilityName": "U OF O", "SiteAddress": "1757.5 E 17TH AVE EUGENE Oregon 97403", "Latitude": 44.04118, "Longitude": -123.0926, "ObjectId": 71 }, "geometry": { "type": "Point", "coordinates": [ -123.0926, 44.04118 ] } },
{ "type": "Feature", "properties": { "FacilityID": 23545, "FacilityName": "U OF O", "SiteAddress": "650 E 11TH AVE EUGENE Oregon 97403", "Latitude": 44.04746, "Longitude": -123.0829, "ObjectId": 72 }, "geometry": { "type": "Point", "coordinates": [ -123.0829, 44.04746 ] } },
{ "type": "Feature", "properties": { "FacilityID": 24223, "FacilityName": "PACIFIC STAIR CO", "SiteAddress": "8694 STAIR WAY NE SALEM Oregon 97305", "Latitude": 45.04705, "Longitude": -122.9563, "ObjectId": 73 }, "geometry": { "type": "Point", "coordinates": [ -122.9563, 45.04705 ] } },
{ "type": "Feature", "properties": { "FacilityID": 44463, "FacilityName": "DIAMOND LAKE IMP CO", "SiteAddress": "CABIN23-RESORT DR DIAMOND LAKE RESORT Oregon 97731", "Latitude": 43.17665, "Longitude": -122.1372, "ObjectId": 74 }, "geometry": { "type": "Point", "coordinates": [ -122.1372, 43.17665 ] } },
{ "type": "Feature", "properties": { "FacilityID": 44463, "FacilityName": "DIAMOND LAKE IMP CO", "SiteAddress": "100 STELLAR DR DIAMOND LAKE RESORT Oregon 97731", "Latitude": 43.17933, "Longitude": -122.1369, "ObjectId": 75 }, "geometry": { "type": "Point", "coordinates": [ -122.1369, 43.17933 ] } },
{ "type": "Feature", "properties": { "FacilityID": 44463, "FacilityName": "DIAMOND LAKE IMP CO", "SiteAddress": "161 DEER HOLLOW DIAMOND LAKE RESORT Oregon 97731", "Latitude": 43.17905, "Longitude": -122.136, "ObjectId": 76 }, "geometry": { "type": "Point", "coordinates": [ -122.136, 43.17905 ] } },
{ "type": "Feature", "properties": { "FacilityID": 44463, "FacilityName": "DIAMOND LAKE IMP CO", "SiteAddress": "183 BEAR CREEK LOOP DIAMOND LAKE RESORT Oregon 97731", "Latitude": 43.17875, "Longitude": -122.136, "ObjectId": 77 }, "geometry": { "type": "Point", "coordinates": [ -122.136, 43.17875 ] } },
{ "type": "Feature", "properties": { "FacilityID": 44463, "FacilityName": "DIAMOND LAKE IMP CO", "SiteAddress": "211 ASPEN LN DIAMOND LAKE RESORT Oregon 97731", "Latitude": 43.17742, "Longitude": -122.1348, "ObjectId": 78 }, "geometry": { "type": "Point", "coordinates": [ -122.1348, 43.17742 ] } },
{ "type": "Feature", "properties": { "FacilityID": 44463, "FacilityName": "DIAMOND LAKE IMP CO", "SiteAddress": "211 PIONEER DR DIAMOND LAKE RESORT Oregon 97731", "Latitude": 43.17845, "Longitude": -122.1363, "ObjectId": 79 }, "geometry": { "type": "Point", "coordinates": [ -122.1363, 43.17845 ] } },
{ "type": "Feature", "properties": { "FacilityID": 44463, "FacilityName": "DIAMOND LAKE IMP CO", "SiteAddress": "230 ASPEN LN DIAMOND LAKE RESORT Oregon 97731", "Latitude": 43.17674, "Longitude": -122.1338, "ObjectId": 80 }, "geometry": { "type": "Point", "coordinates": [ -122.1338, 43.17674 ] } },
{ "type": "Feature", "properties": { "FacilityID": 44463, "FacilityName": "DIAMOND LAKE IMP CO", "SiteAddress": "225 BEAR CREEK LOOP DIAMOND LAKE RESORT Oregon 97731", "Latitude": 43.17912, "Longitude": -122.1357, "ObjectId": 81 }, "geometry": { "type": "Point", "coordinates": [ -122.1357, 43.17912 ] } },
{ "type": "Feature", "properties": { "FacilityID": 44463, "FacilityName": "DIAMOND LAKE IMP CO", "SiteAddress": "235 ASPEN LN DIAMOND LAKE RESORT Oregon 97731", "Latitude": 43.17639, "Longitude": -122.1342, "ObjectId": 82 }, "geometry": { "type": "Point", "coordinates": [ -122.1342, 43.17639 ] } },
{ "type": "Feature", "properties": { "FacilityID": 44463, "FacilityName": "DIAMOND LAKE IMP CO", "SiteAddress": "275 RESORT DR DIAMOND LAKE RESORT Oregon 97731", "Latitude": 43.17714, "Longitude": -122.137, "ObjectId": 83 }, "geometry": { "type": "Point", "coordinates": [ -122.137, 43.17714 ] } },
{ "type": "Feature", "properties": { "FacilityID": 44463, "FacilityName": "DIAMOND LAKE IMP CO", "SiteAddress": "285 RESORT DR DIAMOND LAKE RESORT Oregon 97731", "Latitude": 43.17751, "Longitude": -122.1369, "ObjectId": 84 }, "geometry": { "type": "Point", "coordinates": [ -122.1369, 43.17751 ] } },
{ "type": "Feature", "properties": { "FacilityID": 44463, "FacilityName": "DIAMOND LAKE IMP CO", "SiteAddress": "360 RESORT DR DIAMOND LAKE RESORT Oregon 97731", "Latitude": 43.17801, "Longitude": -122.1381, "ObjectId": 85 }, "geometry": { "type": "Point", "coordinates": [ -122.1381, 43.17801 ] } },
{ "type": "Feature", "properties": { "FacilityID": 44463, "FacilityName": "DIAMOND LAKE IMP CO", "SiteAddress": "3505 DIAMOND LAKE LOOP DIAMOND LAKE RESORT Oregon 97731", "Latitude": 43.14042, "Longitude": -122.1366, "ObjectId": 86 }, "geometry": { "type": "Point", "coordinates": [ -122.1366, 43.14042 ] } },
{ "type": "Feature", "properties": { "FacilityID": 44463, "FacilityName": "DIAMOND LAKE IMP CO", "SiteAddress": "501 DIAMOND LAKE LOOP DIAMOND LAKE RESORT Oregon 97731", "Latitude": 43.18293, "Longitude": -122.1356, "ObjectId": 87 }, "geometry": { "type": "Point", "coordinates": [ -122.1356, 43.18293 ] } },
{ "type": "Feature", "properties": { "FacilityID": 44463, "FacilityName": "DIAMOND LAKE IMP CO", "SiteAddress": "750 DIAMOND LAKE LOOP DIAMOND LAKE RESORT Oregon 97731", "Latitude": 43.18254, "Longitude": -122.1354, "ObjectId": 88 }, "geometry": { "type": "Point", "coordinates": [ -122.1354, 43.18254 ] } },
{ "type": "Feature", "properties": { "FacilityID": 44463, "FacilityName": "DIAMOND LAKE IMP CO", "SiteAddress": "A19 RESORT DR DIAMOND LAKE RESORT Oregon 97731", "Latitude": 43.17665, "Longitude": -122.1372, "ObjectId": 89 }, "geometry": { "type": "Point", "coordinates": [ -122.1372, 43.17665 ] } },
{ "type": "Feature", "properties": { "FacilityID": 56659, "FacilityName": "PACIFIC FOODS OF OREGON INC", "SiteAddress": "19300 SW TETON AVE TUALATIN Oregon 97062", "Latitude": 45.38046, "Longitude": -122.7824, "ObjectId": 90 }, "geometry": { "type": "Point", "coordinates": [ -122.7824, 45.38046 ] } },
{ "type": "Feature", "properties": { "FacilityID": 46015, "FacilityName": "Zinkpower-Portland LLC", "SiteAddress": "2429 NW 29TH AVE PORTLAND Oregon 97210", "Latitude": 45.53961, "Longitude": -122.7115, "ObjectId": 91 }, "geometry": { "type": "Point", "coordinates": [ -122.7115, 45.53961 ] } },
{ "type": "Feature", "properties": { "FacilityID": 56659, "FacilityName": "PACIFIC FOODS OF OREGON INC", "SiteAddress": "19350 SW 97TH AVE TUALATIN Oregon 97062", "Latitude": 45.37998, "Longitude": -122.7778, "ObjectId": 92 }, "geometry": { "type": "Point", "coordinates": [ -122.7778, 45.37998 ] } },
{ "type": "Feature", "properties": { "FacilityID": 56659, "FacilityName": "PACIFIC FOODS OF OREGON INC", "SiteAddress": "19400 SW TETON AVE TUALATIN Oregon 97062", "Latitude": 45.3799, "Longitude": -122.7822, "ObjectId": 93 }, "geometry": { "type": "Point", "coordinates": [ -122.7822, 45.3799 ] } },
{ "type": "Feature", "properties": { "FacilityID": 56659, "FacilityName": "PACIFIC FOODS OF OREGON INC", "SiteAddress": "19505 SW 97TH AVE TUALATIN Oregon 97062", "Latitude": 45.37882, "Longitude": -122.7792, "ObjectId": 94 }, "geometry": { "type": "Point", "coordinates": [ -122.7792, 45.37882 ] } },
{ "type": "Feature", "properties": { "FacilityID": 56659, "FacilityName": "PACIFIC FOODS OF OREGON INC", "SiteAddress": "19550 SW 97TH AVE TUALATIN Oregon 97062", "Latitude": 45.37879, "Longitude": -122.7779, "ObjectId": 95 }, "geometry": { "type": "Point", "coordinates": [ -122.7779, 45.37879 ] } },
{ "type": "Feature", "properties": { "FacilityID": 81794, "FacilityName": "NORTHWEST TECHNOLOGIES INC", "SiteAddress": "1075 NW COMMERCE CT ESTACADA Oregon 97023", "Latitude": 45.30785, "Longitude": -122.3489, "ObjectId": 96 }, "geometry": { "type": "Point", "coordinates": [ -122.3489, 45.30785 ] } },
{ "type": "Feature", "properties": { "FacilityID": 56659, "FacilityName": "PACIFIC FOODS OF OREGON INC", "SiteAddress": "9955 SW POTANO TUALATIN Oregon 97062", "Latitude": 45.3797, "Longitude": -122.7804, "ObjectId": 97 }, "geometry": { "type": "Point", "coordinates": [ -122.7804, 45.3797 ] } },
{ "type": "Feature", "properties": { "FacilityID": 56659, "FacilityName": "PACIFIC FOODS OF OREGON INC", "SiteAddress": "9693 SW TUALATIN SHRWD RD TUALATIN Oregon 97062", "Latitude": 45.38776, "Longitude": -122.777, "ObjectId": 98 }, "geometry": { "type": "Point", "coordinates": [ -122.777, 45.38776 ] } },
{ "type": "Feature", "properties": { "FacilityID": 81794, "FacilityName": "NORTHWEST TECHNOLOGIES INC", "SiteAddress": "970 NW PARK AVE ESTACADA Oregon 97023", "Latitude": 45.30883, "Longitude": -122.3478, "ObjectId": 99 }, "geometry": { "type": "Point", "coordinates": [ -122.3478, 45.30883 ] } },
{ "type": "Feature", "properties": { "FacilityID": 56659, "FacilityName": "PACIFIC FOODS OF OREGON INC", "SiteAddress": "9735 SW TUALATIN SHRWD RD TUALATIN Oregon 97062", "Latitude": 45.38882, "Longitude": -122.777, "ObjectId": 100 }, "geometry": { "type": "Point", "coordinates": [ -122.777, 45.38882 ] } },
{ "type": "Feature", "properties": { "FacilityID": 121693, "FacilityName": "PACIFICORP", "SiteAddress": "2100 LAVERNE AVE KLAMATH FALLS Oregon 97603", "Latitude": 42.193195, "Longitude": -121.765863, "ObjectId": 101 }, "geometry": { "type": "Point", "coordinates": [ -121.765863, 42.193195 ] } },
{ "type": "Feature", "properties": { "FacilityID": 125841, "FacilityName": "Verizon Wireless - ONYX - B (ID:616521935)", "SiteAddress": "3644 Crest ST KLAMATH FALLS Oregon 97603", "Latitude": 42.1932, "Longitude": -121.7427, "ObjectId": 102 }, "geometry": { "type": "Point", "coordinates": [ -121.7427, 42.1932 ] } },
{ "type": "Feature", "properties": { "FacilityID": 6076, "FacilityName": "ODOT", "SiteAddress": "95732 HWY 140 LAKEVIEW Oregon 97630", "Latitude": 42.193311, "Longitude": -120.366778, "ObjectId": 103 }, "geometry": { "type": "Point", "coordinates": [ -120.366778, 42.193311 ] } },
{ "type": "Feature", "properties": { "FacilityID": 15673, "FacilityName": "Ed Staub & Sons Petroleum Inc", "SiteAddress": "1440 N 4th street ST LAKEVIEW Oregon 97630", "Latitude": 42.1935, "Longitude": -120.3564, "ObjectId": 104 }, "geometry": { "type": "Point", "coordinates": [ -120.3564, 42.1935 ] } },
{ "type": "Feature", "properties": { "FacilityID": 14643, "FacilityName": "LES SCHWAB TIRE CENTER", "SiteAddress": "422 N F ST LAKEVIEW Oregon 97630", "Latitude": 42.1935, "Longitude": -120.3457, "ObjectId": 105 }, "geometry": { "type": "Point", "coordinates": [ -120.3457, 42.1935 ] } },
{ "type": "Feature", "properties": { "FacilityID": 12395, "FacilityName": "ROCKY MOUNTAIN CONSTRUCTION", "SiteAddress": "2918 Edison St KLAMATH FALLS Oregon 97603", "Latitude": 42.1936, "Longitude": -121.7533, "ObjectId": 106 }, "geometry": { "type": "Point", "coordinates": [ -121.7533, 42.1936 ] } },
{ "type": "Feature", "properties": { "FacilityID": 121403, "FacilityName": "NEW CINGULAR WIRELESS PCS, LLC - USID141393", "SiteAddress": "1840 DEAD INDIAN MEMORIAL RD ASHLAND Oregon 97520", "Latitude": 42.1938, "Longitude": -122.6341, "ObjectId": 107 }, "geometry": { "type": "Point", "coordinates": [ -122.6341, 42.1938 ] } },
{ "type": "Feature", "properties": { "FacilityID": 1011, "FacilityName": "Surprise Valley Electrification Corp.", "SiteAddress": "95539 W Highway 140 HWY W LAKEVIEW Oregon 97630", "Latitude": 42.1938, "Longitude": -120.3743, "ObjectId": 108 }, "geometry": { "type": "Point", "coordinates": [ -120.3743, 42.1938 ] } },
{ "type": "Feature", "properties": { "FacilityID": 20120, "FacilityName": "HALL MOTOR COMPANY", "SiteAddress": "1700 N 4TH ST LAKEVIEW Oregon 97630", "Latitude": 42.1938, "Longitude": -120.358, "ObjectId": 109 }, "geometry": { "type": "Point", "coordinates": [ -120.358, 42.1938 ] } },
{ "type": "Feature", "properties": { "FacilityID": 122257, "FacilityName": "US CELLULAR - ASHLAND 349303", "SiteAddress": "1670 Dead Indian Memorial RD ASHLAND Oregon 97520", "Latitude": 42.194, "Longitude": -122.6339, "ObjectId": 110 }, "geometry": { "type": "Point", "coordinates": [ -122.6339, 42.194 ] } },
{ "type": "Feature", "properties": { "FacilityID": 5403, "FacilityName": "ODF", "SiteAddress": "3200 DELAP RD KLAMATH FALLS Oregon 97601", "Latitude": 42.194, "Longitude": -121.8004, "ObjectId": 111 }, "geometry": { "type": "Point", "coordinates": [ -121.8004, 42.194 ] } },
{ "type": "Feature", "properties": { "FacilityID": 75159, "FacilityName": "ED STAUB & SONS PETROLEUM INC", "SiteAddress": "3029 Greensprings KLAMATH FALLS Oregon 97601", "Latitude": 42.194067, "Longitude": -121.795365, "ObjectId": 112 }, "geometry": { "type": "Point", "coordinates": [ -121.795365, 42.194067 ] } },
{ "type": "Feature", "properties": { "FacilityID": 62389, "FacilityName": "JOSEPHINE COUNTY", "SiteAddress": "24253 REDWOOD HIGHWAY HWY KERBY Oregon 97523", "Latitude": 42.1942, "Longitude": -123.6492, "ObjectId": 113 }, "geometry": { "type": "Point", "coordinates": [ -123.6492, 42.1942 ] } },
{ "type": "Feature", "properties": { "FacilityID": 4716, "FacilityName": "PAUL & ROBERT WAMPLER INC", "SiteAddress": "3424 AVALON ST ST KLAMATH FALLS Oregon 97603", "Latitude": 42.194289, "Longitude": -121.755455, "ObjectId": 114 }, "geometry": { "type": "Point", "coordinates": [ -121.755455, 42.194289 ] } },
{ "type": "Feature", "properties": { "FacilityID": 67724, "FacilityName": "NATIONAL FISH & WILDLIFE FORENSIC", "SiteAddress": "1490 E MAIN ST ASHLAND Oregon 97520", "Latitude": 42.1944, "Longitude": -122.6907, "ObjectId": 115 }, "geometry": { "type": "Point", "coordinates": [ -122.6907, 42.1944 ] } },
{ "type": "Feature", "properties": { "FacilityID": 18693, "FacilityName": "INDUSTRIAL OILS INC", "SiteAddress": "1291 LAVERNE AVE KLAMATH FALLS Oregon 97603", "Latitude": 42.1945, "Longitude": -121.7756, "ObjectId": 116 }, "geometry": { "type": "Point", "coordinates": [ -121.7756, 42.1945 ] } },
{ "type": "Feature", "properties": { "FacilityID": 20877, "FacilityName": "CENTURYLINK", "SiteAddress": "50 6TH ST ASHLAND Oregon 97520", "Latitude": 42.1946, "Longitude": -122.7054, "ObjectId": 117 }, "geometry": { "type": "Point", "coordinates": [ -122.7054, 42.1946 ] } },
{ "type": "Feature", "properties": { "FacilityID": 101002, "FacilityName": "ROGUE TRUCK BODY LLC", "SiteAddress": "240 W FINCH RD W KERBY Oregon 97531", "Latitude": 42.1948, "Longitude": -123.6525, "ObjectId": 118 }, "geometry": { "type": "Point", "coordinates": [ -123.6525, 42.1948 ] } },
{ "type": "Feature", "properties": { "FacilityID": 22248, "FacilityName": "Ed Staub & Sons Petroleum Inc", "SiteAddress": "3419 Harpold RD BONANZA Oregon 97623", "Latitude": 42.194872, "Longitude": -121.408768, "ObjectId": 119 }, "geometry": { "type": "Point", "coordinates": [ -121.408768, 42.194872 ] } },
{ "type": "Feature", "properties": { "FacilityID": 124145, "FacilityName": "LES SCHWAB TIRE CENTER", "SiteAddress": "3427 WASHBURN WAY KLAMATH FALLS Oregon 97603", "Latitude": 42.1949, "Longitude": -121.7558, "ObjectId": 120 }, "geometry": { "type": "Point", "coordinates": [ -121.7558, 42.1949 ] } },
{ "type": "Feature", "properties": { "FacilityID": 2380, "FacilityName": "C-2 HYDRAULICS INC", "SiteAddress": "5156 HARLAN DR KLAMATH FALLS Oregon 97603", "Latitude": 42.1951, "Longitude": -121.726, "ObjectId": 121 }, "geometry": { "type": "Point", "coordinates": [ -121.726, 42.1951 ] } },
{ "type": "Feature", "properties": { "FacilityID": 106729, "FacilityName": "Verizon Wireless - ASHLAND (ID:1211929)", "SiteAddress": "212 E MAIN ST ASHLAND Oregon 97520", "Latitude": 42.1954, "Longitude": -122.7133, "ObjectId": 122 }, "geometry": { "type": "Point", "coordinates": [ -122.7133, 42.1954 ] } },
{ "type": "Feature", "properties": { "FacilityID": 16605, "FacilityName": "ASHLAND CITY OF", "SiteAddress": "90 N MOUNTAIN ST ASHLAND Oregon 97520", "Latitude": 42.1955, "Longitude": -122.6992, "ObjectId": 123 }, "geometry": { "type": "Point", "coordinates": [ -122.6992, 42.1955 ] } },
{ "type": "Feature", "properties": { "FacilityID": 67141, "FacilityName": "NEW CINGULAR WIRELESS PCS, LLC - USID11153", "SiteAddress": "212 E MAIN ST ASHLAND Oregon 97520", "Latitude": 42.1958, "Longitude": -122.7128, "ObjectId": 124 }, "geometry": { "type": "Point", "coordinates": [ -122.7128, 42.1958 ] } },
{ "type": "Feature", "properties": { "FacilityID": 122258, "FacilityName": "US CELLULAR - ASHLAND DOWNTOWN 349332", "SiteAddress": "212 E Main ST ASHLAND Oregon 97520", "Latitude": 42.1958, "Longitude": -122.7127, "ObjectId": 125 }, "geometry": { "type": "Point", "coordinates": [ -122.7127, 42.1958 ] } },
{ "type": "Feature", "properties": { "FacilityID": 124868, "FacilityName": "T-Mobile US", "SiteAddress": "212 E Main ST ASHLAND Oregon 97520", "Latitude": 42.1959, "Longitude": -122.7127, "ObjectId": 126 }, "geometry": { "type": "Point", "coordinates": [ -122.7127, 42.1959 ] } },
{ "type": "Feature", "properties": { "FacilityID": 59941, "FacilityName": "WASHBURN AUTO CARE", "SiteAddress": "3320 WASHBURN WAY N KLAMATH FALLS Oregon 97603", "Latitude": 42.196051, "Longitude": -121.757436, "ObjectId": 127 }, "geometry": { "type": "Point", "coordinates": [ -121.757436, 42.196051 ] } },
{ "type": "Feature", "properties": { "FacilityID": 11868, "FacilityName": "DRIVELINE SERVICE & RADIATOR KING INC", "SiteAddress": "3369 WASHBURN WAY WAY KLAMATH FALLS Oregon 976034529", "Latitude": 42.1961, "Longitude": -121.7567, "ObjectId": 128 }, "geometry": { "type": "Point", "coordinates": [ -121.7567, 42.1961 ] } },
{ "type": "Feature", "properties": { "FacilityID": 10334, "FacilityName": "BASIN TIRE SERVICE INC", "SiteAddress": "3313 WASHBURN WAY WAY KLAMATH FALLS Oregon 976034529", "Latitude": 42.1971, "Longitude": -121.7564, "ObjectId": 129 }, "geometry": { "type": "Point", "coordinates": [ -121.7564, 42.1971 ] } },
{ "type": "Feature", "properties": { "FacilityID": 19257, "FacilityName": "Fast Break of Oregon, LLC", "SiteAddress": "3303 Washburn WAY KLAMATH FALLS Oregon 97603", "Latitude": 42.1973, "Longitude": -121.7554, "ObjectId": 130 }, "geometry": { "type": "Point", "coordinates": [ -121.7554, 42.1973 ] } },
{ "type": "Feature", "properties": { "FacilityID": 3567, "FacilityName": "S & S MFG CO", "SiteAddress": "3305 WASHBURN WAY KLAMATH FALLS Oregon 97603", "Latitude": 42.1973, "Longitude": -121.7553, "ObjectId": 131 }, "geometry": { "type": "Point", "coordinates": [ -121.7553, 42.1973 ] } },
{ "type": "Feature", "properties": { "FacilityID": 714, "FacilityName": "BEARCAT TRANSPORTATION LLC", "SiteAddress": "3301 BROADMORE ST KLAMATH FALLS Oregon 97603", "Latitude": 42.1973, "Longitude": -121.7544, "ObjectId": 132 }, "geometry": { "type": "Point", "coordinates": [ -121.7544, 42.1973 ] } },
{ "type": "Feature", "properties": { "FacilityID": 22510, "FacilityName": "Norco Inc.-Klamath Falls WH 35", "SiteAddress": "3310 WASHBURN WAY KLAMATH FALLS Oregon 97603", "Latitude": 42.1974, "Longitude": -121.7588, "ObjectId": 133 }, "geometry": { "type": "Point", "coordinates": [ -121.7588, 42.1974 ] } },
{ "type": "Feature", "properties": { "FacilityID": 44251, "FacilityName": "ASHLAND 76 & AUTO REPAIR", "SiteAddress": "75 LITHIA WAY ASHLAND Oregon 97520", "Latitude": 42.1977, "Longitude": -122.7137, "ObjectId": 134 }, "geometry": { "type": "Point", "coordinates": [ -122.7137, 42.1977 ] } },
{ "type": "Feature", "properties": { "FacilityID": 122489, "FacilityName": "US CELLULAR - TABLE MTN 349320", "SiteAddress": "2000 Table Mountain RD ASHLAND Oregon 97520", "Latitude": 42.1978, "Longitude": -122.4927, "ObjectId": 135 }, "geometry": { "type": "Point", "coordinates": [ -122.4927, 42.1978 ] } },
{ "type": "Feature", "properties": { "FacilityID": 89269, "FacilityName": "KLAMATH COUNTY SCHOOL DISTRICT", "SiteAddress": "3009 SUMMERS LA KLAMATH FALLS Oregon 97603", "Latitude": 42.1979, "Longitude": -121.7349, "ObjectId": 136 }, "geometry": { "type": "Point", "coordinates": [ -121.7349, 42.1979 ] } },
{ "type": "Feature", "properties": { "FacilityID": 1945, "FacilityName": "ALBINA ASPHALT", "SiteAddress": "2936 HILYARD AVE KLAMATH FALLS Oregon 97603", "Latitude": 42.198, "Longitude": -121.7531, "ObjectId": 137 }, "geometry": { "type": "Point", "coordinates": [ -121.7531, 42.198 ] } },
{ "type": "Feature", "properties": { "FacilityID": 120701, "FacilityName": "Ed Staub & Sons Petroleum Inc.", "SiteAddress": "31880 OR-70 BONANZA Oregon 97623", "Latitude": 42.1982, "Longitude": -121.4029, "ObjectId": 138 }, "geometry": { "type": "Point", "coordinates": [ -121.4029, 42.1982 ] } },
{ "type": "Feature", "properties": { "FacilityID": 75197, "FacilityName": "Ed Staub & Sons Petroleum Inc", "SiteAddress": "31770 HWY 70 HWY BONANZA Oregon 97623", "Latitude": 42.198612, "Longitude": -121.403977, "ObjectId": 139 }, "geometry": { "type": "Point", "coordinates": [ -121.403977, 42.198612 ] } },
{ "type": "Feature", "properties": { "FacilityID": 36059, "FacilityName": "GRANGE COOP SUPPLY ASSN", "SiteAddress": "421 A ST ASHLAND Oregon 97520", "Latitude": 42.1987, "Longitude": -122.7088, "ObjectId": 140 }, "geometry": { "type": "Point", "coordinates": [ -122.7088, 42.1987 ] } },
{ "type": "Feature", "properties": { "FacilityID": 124992, "FacilityName": "T-Mobile US", "SiteAddress": "30507 Highway 70 HWY BONANZA Oregon 97623", "Latitude": 42.1987, "Longitude": -121.4021, "ObjectId": 141 }, "geometry": { "type": "Point", "coordinates": [ -121.4021, 42.1987 ] } },
{ "type": "Feature", "properties": { "FacilityID": 13417, "FacilityName": "SOUTH SUBURBAN SANITARY DIST", "SiteAddress": "2980 N MAYWOOD DR W KLAMATH FALLS Oregon 97603", "Latitude": 42.1995, "Longitude": -121.7592, "ObjectId": 142 }, "geometry": { "type": "Point", "coordinates": [ -121.7592, 42.1995 ] } },
{ "type": "Feature", "properties": { "FacilityID": 21386, "FacilityName": "KLAMATH COUNTY SCHOOL DISTRICT", "SiteAddress": "31610 MISSION ST BONANZA Oregon 97623", "Latitude": 42.1995, "Longitude": -121.4063, "ObjectId": 143 }, "geometry": { "type": "Point", "coordinates": [ -121.4063, 42.1995 ] } },
{ "type": "Feature", "properties": { "FacilityID": 20822, "FacilityName": "AMERIGAS PROPANE LP", "SiteAddress": "6940 S 6TH ST KLAMATH FALLS Oregon 97603", "Latitude": 42.1996, "Longitude": -121.7039, "ObjectId": 144 }, "geometry": { "type": "Point", "coordinates": [ -121.7039, 42.1996 ] } },
{ "type": "Feature", "properties": { "FacilityID": 21431, "FacilityName": "KLAMATH FALLS CITY OF", "SiteAddress": "2623 DEBBIE ST N KLAMATH FALLS Oregon 97601", "Latitude": 42.19964, "Longitude": -121.820462, "ObjectId": 145 }, "geometry": { "type": "Point", "coordinates": [ -121.820462, 42.19964 ] } },
{ "type": "Feature", "properties": { "FacilityID": 112341, "FacilityName": "AutoZone #3753", "SiteAddress": "2977 WASHBURN WAY KLAMATH FALLS Oregon 97603", "Latitude": 42.1997, "Longitude": -121.7566, "ObjectId": 146 }, "geometry": { "type": "Point", "coordinates": [ -121.7566, 42.1997 ] } },
{ "type": "Feature", "properties": { "FacilityID": 110435, "FacilityName": "PACIFICORP", "SiteAddress": "1950 MALLARD LA KLAMATH FALLS Oregon 97601", "Latitude": 42.1998, "Longitude": -121.7817, "ObjectId": 147 }, "geometry": { "type": "Point", "coordinates": [ -121.7817, 42.1998 ] } },
{ "type": "Feature", "properties": { "FacilityID": 23863, "FacilityName": "KLAMATH COUNTY FIRE DIST 1", "SiteAddress": "7110 HILYARD AVE KLAMATH FALLS Oregon 97603", "Latitude": 42.1999, "Longitude": -121.7021, "ObjectId": 148 }, "geometry": { "type": "Point", "coordinates": [ -121.7021, 42.1999 ] } },
{ "type": "Feature", "properties": { "FacilityID": 95417, "FacilityName": "Verizon Wireless - CARPENTERVILLE (ID:3561675)", "SiteAddress": "2100 CARPENTERVILLE RD BROOKINGS Oregon 97415", "Latitude": 42.2001, "Longitude": -124.3371, "ObjectId": 149 }, "geometry": { "type": "Point", "coordinates": [ -124.3371, 42.2001 ] } },
{ "type": "Feature", "properties": { "FacilityID": 17237, "FacilityName": "PACIFICORP", "SiteAddress": "MALLARD LA KLAMATH FALLS Oregon 97601", "Latitude": 42.2004, "Longitude": -121.783612, "ObjectId": 150 }, "geometry": { "type": "Point", "coordinates": [ -121.783612, 42.2004 ] } },
{ "type": "Feature", "properties": { "FacilityID": 126071, "FacilityName": "PRI Southern Oregon, Inc.", "SiteAddress": "2933 Hilyard AVE KLAMATH FALLS Oregon 97603", "Latitude": 42.2004, "Longitude": -121.753, "ObjectId": 151 }, "geometry": { "type": "Point", "coordinates": [ -121.753, 42.2004 ] } },
{ "type": "Feature", "properties": { "FacilityID": 124561, "FacilityName": "T-Mobile US", "SiteAddress": "2100 Dead Indian Memorial RD ASHLAND Oregon 97520", "Latitude": 42.2006, "Longitude": -122.6359, "ObjectId": 152 }, "geometry": { "type": "Point", "coordinates": [ -122.6359, 42.2006 ] } },
{ "type": "Feature", "properties": { "FacilityID": 23494, "FacilityName": "AVISTA", "SiteAddress": "2849 PATTERSON ST KLAMATH FALLS Oregon 97601", "Latitude": 42.2006, "Longitude": -121.7124, "ObjectId": 153 }, "geometry": { "type": "Point", "coordinates": [ -121.7124, 42.2006 ] } },
{ "type": "Feature", "properties": { "FacilityID": 43791, "FacilityName": "BPA Mt Avenue Substation", "SiteAddress": "500 MOUNTAIN AVE ASHLAND Oregon 97520", "Latitude": 42.200783, "Longitude": -122.699681, "ObjectId": 154 }, "geometry": { "type": "Point", "coordinates": [ -122.699681, 42.200783 ] } },
{ "type": "Feature", "properties": { "FacilityID": 123368, "FacilityName": "Ferguson - 3072", "SiteAddress": "2851 BROADMORE ST KLAMATH FALLS Oregon 97603", "Latitude": 42.2009, "Longitude": -121.7543, "ObjectId": 155 }, "geometry": { "type": "Point", "coordinates": [ -121.7543, 42.2009 ] } },
{ "type": "Feature", "properties": { "FacilityID": 37517, "FacilityName": "LITHIA FORD OF KLAMATH FALLS", "SiteAddress": "2833 WASHBURN WAY KLAMATH FALLS Oregon 97603", "Latitude": 42.2011, "Longitude": -121.7559, "ObjectId": 156 }, "geometry": { "type": "Point", "coordinates": [ -121.7559, 42.2011 ] } },
{ "type": "Feature", "properties": { "FacilityID": 37453, "FacilityName": "KLAMATH FALLS Honda", "SiteAddress": "2810 WASHBURN WAY KLAMATH FALLS Oregon 97603", "Latitude": 42.2013, "Longitude": -121.7578, "ObjectId": 157 }, "geometry": { "type": "Point", "coordinates": [ -121.7578, 42.2013 ] } },
{ "type": "Feature", "properties": { "FacilityID": 106005, "FacilityName": "Klamath Basin Metals and Supply", "SiteAddress": "2825 BROADMORE ST ST KLAMATH FALLS Oregon 97603", "Latitude": 42.2014, "Longitude": -121.7542, "ObjectId": 158 }, "geometry": { "type": "Point", "coordinates": [ -121.7542, 42.2014 ] } },
{ "type": "Feature", "properties": { "FacilityID": 126071, "FacilityName": "PRI Southern Oregon, Inc.", "SiteAddress": "2825 Broadmore ST KLAMATH FALLS Oregon 97603", "Latitude": 42.2016, "Longitude": -121.7542, "ObjectId": 159 }, "geometry": { "type": "Point", "coordinates": [ -121.7542, 42.2016 ] } },
{ "type": "Feature", "properties": { "FacilityID": 2672, "FacilityName": "TIMBERLAND LOGGING", "SiteAddress": "2275 DEAD INDIAN Memorial Road RD ASHLAND Oregon 97520", "Latitude": 42.2021, "Longitude": -122.6345, "ObjectId": 160 }, "geometry": { "type": "Point", "coordinates": [ -122.6345, 42.2021 ] } },
{ "type": "Feature", "properties": { "FacilityID": 124022, "FacilityName": "Klamath Vector Control District", "SiteAddress": "2750 Maywood Drive DR KLAMATH FALLS Oregon 97603", "Latitude": 42.2023, "Longitude": -121.7592, "ObjectId": 161 }, "geometry": { "type": "Point", "coordinates": [ -121.7592, 42.2023 ] } },
{ "type": "Feature", "properties": { "FacilityID": 65073, "FacilityName": "RIVERSIDE DIESEL INC", "SiteAddress": "1859 RIVERSIDE DR N KLAMATH FALLS Oregon 97601", "Latitude": 42.2025, "Longitude": -121.7876, "ObjectId": 162 }, "geometry": { "type": "Point", "coordinates": [ -121.7876, 42.2025 ] } },
{ "type": "Feature", "properties": { "FacilityID": 124874, "FacilityName": "T-Mobile US", "SiteAddress": "2500 Vale RD KLAMATH FALLS Oregon 97603", "Latitude": 42.2029, "Longitude": -121.684, "ObjectId": 163 }, "geometry": { "type": "Point", "coordinates": [ -121.684, 42.2029 ] } },
{ "type": "Feature", "properties": { "FacilityID": 24941, "FacilityName": "USA WASTE KLAMATH FALLS", "SiteAddress": "1812 E Greensprings DR KLAMATH FALLS Oregon 97601", "Latitude": 42.2039, "Longitude": -121.785, "ObjectId": 164 }, "geometry": { "type": "Point", "coordinates": [ -121.785, 42.2039 ] } },
{ "type": "Feature", "properties": { "FacilityID": 17886, "FacilityName": "COLLINS CO - LAKEVIEW SAWMILL", "SiteAddress": "1600 MISSOURI AVE S LAKEVIEW Oregon 97630", "Latitude": 42.2043, "Longitude": -120.3512, "ObjectId": 165 }, "geometry": { "type": "Point", "coordinates": [ -120.3512, 42.2043 ] } },
{ "type": "Feature", "properties": { "FacilityID": 104707, "FacilityName": "GRANGE COOP SUPPLY ASSN", "SiteAddress": "2525 WASHBURN WAY KLAMATH FALLS Oregon 97603", "Latitude": 42.2046, "Longitude": -121.7564, "ObjectId": 166 }, "geometry": { "type": "Point", "coordinates": [ -121.7564, 42.2046 ] } },
{ "type": "Feature", "properties": { "FacilityID": 6071, "FacilityName": "ODOT", "SiteAddress": "2557 ALTAMONT DR KLAMATH FALLS Oregon 976035701", "Latitude": 42.204757, "Longitude": -121.747169, "ObjectId": 167 }, "geometry": { "type": "Point", "coordinates": [ -121.747169, 42.204757 ] } },
{ "type": "Feature", "properties": { "FacilityID": 117958, "FacilityName": "NEW CINGULAR WIRELESS PCS, LLC - USID102706", "SiteAddress": "2500 VALE RD KLAMATH FALLS Oregon 97603", "Latitude": 42.2049, "Longitude": -121.6878, "ObjectId": 168 }, "geometry": { "type": "Point", "coordinates": [ -121.6878, 42.2049 ] } },
{ "type": "Feature", "properties": { "FacilityID": 124750, "FacilityName": "T-Mobile US", "SiteAddress": "12345 Black Cap RD LAKEVIEW Oregon 97630", "Latitude": 42.204983, "Longitude": -120.328117, "ObjectId": 169 }, "geometry": { "type": "Point", "coordinates": [ -120.328117, 42.204983 ] } },
{ "type": "Feature", "properties": { "FacilityID": 95493, "FacilityName": "Verizon Wireless - HOGBACK MOUNTAIN (E Klamath Falls) (ID:39834)", "SiteAddress": "2500 VALE RD KLAMATH FALLS Oregon 97603", "Latitude": 42.205, "Longitude": -121.6878, "ObjectId": 170 }, "geometry": { "type": "Point", "coordinates": [ -121.6878, 42.205 ] } },
{ "type": "Feature", "properties": { "FacilityID": 114182, "FacilityName": "Verizon Wireless - BLACK CAP (ID:5201576)", "SiteAddress": "5 MI EAST OF LAKEVIEW LAKEVIEW Oregon 97360", "Latitude": 42.205, "Longitude": -120.3282, "ObjectId": 171 }, "geometry": { "type": "Point", "coordinates": [ -120.3282, 42.205 ] } },
{ "type": "Feature", "properties": { "FacilityID": 125328, "FacilityName": "Verizon Wireless - WIARD - C (ID:616790437)", "SiteAddress": "2415 Homedale RD KLAMATH FALLS Oregon 97603", "Latitude": 42.2052, "Longitude": -121.7224, "ObjectId": 172 }, "geometry": { "type": "Point", "coordinates": [ -121.7224, 42.2052 ] } },
{ "type": "Feature", "properties": { "FacilityID": 122254, "FacilityName": "US CELLULAR - ALTAMONT 349426", "SiteAddress": "2401 Homedale RD KLAMATH FALLS Oregon 97603", "Latitude": 42.2052, "Longitude": -121.7218, "ObjectId": 173 }, "geometry": { "type": "Point", "coordinates": [ -121.7218, 42.2052 ] } },
{ "type": "Feature", "properties": { "FacilityID": 122376, "FacilityName": "US CELLULAR - LAKEVIEW 349346", "SiteAddress": "1.5 mi NE of Lakeview on Blackcap Mtn LAKEVIEW Oregon 97630", "Latitude": 42.2052, "Longitude": -120.3255, "ObjectId": 174 }, "geometry": { "type": "Point", "coordinates": [ -120.3255, 42.2052 ] } },
{ "type": "Feature", "properties": { "FacilityID": 112699, "FacilityName": "The Home Depot Store #4019", "SiteAddress": "6451 S 6TH ST KLAMATH FALLS Oregon 97603", "Latitude": 42.2056, "Longitude": -121.71, "ObjectId": 175 }, "geometry": { "type": "Point", "coordinates": [ -121.71, 42.2056 ] } },
{ "type": "Feature", "properties": { "FacilityID": 23864, "FacilityName": "KLAMATH COUNTY FIRE DIST 1", "SiteAddress": "2342 GETTLE ST KLAMATH FALLS Oregon 97603", "Latitude": 42.2058, "Longitude": -121.7329, "ObjectId": 176 }, "geometry": { "type": "Point", "coordinates": [ -121.7329, 42.2058 ] } },
{ "type": "Feature", "properties": { "FacilityID": 49886, "FacilityName": "ASANTE ASHLAND COMMUNITY HOSPITAL", "SiteAddress": "280 MAPLE ST ASHLAND Oregon 97520", "Latitude": 42.2059, "Longitude": -122.725, "ObjectId": 177 }, "geometry": { "type": "Point", "coordinates": [ -122.725, 42.2059 ] } },
{ "type": "Feature", "properties": { "FacilityID": 17451, "FacilityName": "KLAMATH FALLS TOWNE PUMP", "SiteAddress": "4315 S 6TH ST KLAMATH FALLS Oregon 97601", "Latitude": 42.206018, "Longitude": -121.736118, "ObjectId": 178 }, "geometry": { "type": "Point", "coordinates": [ -121.736118, 42.206018 ] } },
{ "type": "Feature", "properties": { "FacilityID": 125795, "FacilityName": "Sunbelt Rentals 1781", "SiteAddress": "5900 S 6th ST KLAMATH FALLS Oregon 97603", "Latitude": 42.2061, "Longitude": -121.7158, "ObjectId": 179 }, "geometry": { "type": "Point", "coordinates": [ -121.7158, 42.2061 ] } },
{ "type": "Feature", "properties": { "FacilityID": 125046, "FacilityName": "Colvin Oil I LLC 3155", "SiteAddress": "3434 S 6TH ST KLAMATH FALLS Oregon 97603", "Latitude": 42.2062, "Longitude": -121.7467, "ObjectId": 180 }, "geometry": { "type": "Point", "coordinates": [ -121.7467, 42.2062 ] } },
{ "type": "Feature", "properties": { "FacilityID": 123872, "FacilityName": "Rodda Paint Co", "SiteAddress": "4338 S 6th ST S KLAMATH FALLS Oregon 97601", "Latitude": 42.2062, "Longitude": -121.7353, "ObjectId": 181 }, "geometry": { "type": "Point", "coordinates": [ -121.7353, 42.2062 ] } },
{ "type": "Feature", "properties": { "FacilityID": 75391, "FacilityName": "Ed Sstaub & Sons Petroleum Inc", "SiteAddress": "5800 S 6TH ST KLAMATH FALLS Oregon 97603", "Latitude": 42.206231, "Longitude": -121.717403, "ObjectId": 182 }, "geometry": { "type": "Point", "coordinates": [ -121.717403, 42.206231 ] } },
{ "type": "Feature", "properties": { "FacilityID": 87266, "FacilityName": "OIL CAN HENRYS", "SiteAddress": "5805 S 6th ST KLAMATH FALLS Oregon 97603", "Latitude": 42.206595, "Longitude": -121.717816, "ObjectId": 183 }, "geometry": { "type": "Point", "coordinates": [ -121.717816, 42.206595 ] } },
{ "type": "Feature", "properties": { "FacilityID": 58370, "FacilityName": "SHERWIN WILLIAMS CO", "SiteAddress": "4525 S 6TH ST KLAMATH FALLS Oregon 97603", "Latitude": 42.2068, "Longitude": -121.733, "ObjectId": 184 }, "geometry": { "type": "Point", "coordinates": [ -121.733, 42.2068 ] } },
{ "type": "Feature", "properties": { "FacilityID": 14854, "FacilityName": "LES SCHWAB TIRE CENTER", "SiteAddress": "5757 S 6TH ST KLAMATH FALLS Oregon 97601", "Latitude": 42.2069, "Longitude": -121.7182, "ObjectId": 185 }, "geometry": { "type": "Point", "coordinates": [ -121.7182, 42.2069 ] } },
{ "type": "Feature", "properties": { "FacilityID": 9302, "FacilityName": "PARDUE CONSTRUCTION LLC", "SiteAddress": "17547 N HWY 395 HWY N LAKEVIEW Oregon 97630", "Latitude": 42.207, "Longitude": -120.3526, "ObjectId": 186 }, "geometry": { "type": "Point", "coordinates": [ -120.3526, 42.207 ] } },
{ "type": "Feature", "properties": { "FacilityID": 20307, "FacilityName": "AIRGAS USA LLC", "SiteAddress": "2234 WASHBURN WAY KLAMATH FALLS Oregon 97601", "Latitude": 42.207329, "Longitude": -121.757466, "ObjectId": 187 }, "geometry": { "type": "Point", "coordinates": [ -121.757466, 42.207329 ] } },
{ "type": "Feature", "properties": { "FacilityID": 74829, "FacilityName": "O'Reilly Auto Parts #3113", "SiteAddress": "2212 WASHBURN WAY KLAMATH FALLS Oregon 97603", "Latitude": 42.2074, "Longitude": -121.7581, "ObjectId": 188 }, "geometry": { "type": "Point", "coordinates": [ -121.7581, 42.2074 ] } },
{ "type": "Feature", "properties": { "FacilityID": 99306, "FacilityName": "APRIA HEALTHCARE LLC", "SiteAddress": "2245 CREST ST KLAMATH FALLS Oregon 97603", "Latitude": 42.2076, "Longitude": -121.742, "ObjectId": 189 }, "geometry": { "type": "Point", "coordinates": [ -121.742, 42.2076 ] } },
{ "type": "Feature", "properties": { "FacilityID": 105311, "FacilityName": "ASHLAND SURGERY CENTER", "SiteAddress": "658 N MAIN ST N ASHLAND Oregon 97520", "Latitude": 42.208, "Longitude": -122.7213, "ObjectId": 190 }, "geometry": { "type": "Point", "coordinates": [ -122.7213, 42.208 ] } },
{ "type": "Feature", "properties": { "FacilityID": 2520, "FacilityName": "PEPSI COLA BOTTLING CO", "SiteAddress": "4033 MILLER ST KLAMATH FALLS Oregon 97603", "Latitude": 42.2082, "Longitude": -121.7397, "ObjectId": 191 }, "geometry": { "type": "Point", "coordinates": [ -121.7397, 42.2082 ] } },
{ "type": "Feature", "properties": { "FacilityID": 55435, "FacilityName": "MAXS GARAGE INC", "SiteAddress": "17586 N 395 HWY N LAKEVIEW Oregon 97630", "Latitude": 42.2083, "Longitude": -120.3552, "ObjectId": 192 }, "geometry": { "type": "Point", "coordinates": [ -120.3552, 42.2083 ] } },
{ "type": "Feature", "properties": { "FacilityID": 62597, "FacilityName": "Imerys Perlite USA", "SiteAddress": "96078 Industrial lane LA LAKEVIEW Oregon 97630", "Latitude": 42.2092, "Longitude": -120.3584, "ObjectId": 193 }, "geometry": { "type": "Point", "coordinates": [ -120.3584, 42.2092 ] } },
{ "type": "Feature", "properties": { "FacilityID": 99988, "FacilityName": "MY MECHANIC", "SiteAddress": "3000 PERSHING WAY KLAMATH FALLS Oregon 97603", "Latitude": 42.209475, "Longitude": -121.751731, "ObjectId": 194 }, "geometry": { "type": "Point", "coordinates": [ -121.751731, 42.209475 ] } },
{ "type": "Feature", "properties": { "FacilityID": 14100, "FacilityName": "BAXTER AUTO PARTS", "SiteAddress": "2935 S 6TH ST KLAMATH FALLS Oregon 976034692", "Latitude": 42.2099, "Longitude": -121.7532, "ObjectId": 195 }, "geometry": { "type": "Point", "coordinates": [ -121.7532, 42.2099 ] } },
{ "type": "Feature", "properties": { "FacilityID": 90716, "FacilityName": "LAKEVIEW DISTRICT BLM", "SiteAddress": "T39S R1 3E SEC 2 SE 1/4 SE 1/4 SE 1/4 RD KLAMATH FALLS Oregon 97603", "Latitude": 42.210052, "Longitude": -121.135812, "ObjectId": 196 }, "geometry": { "type": "Point", "coordinates": [ -121.135812, 42.210052 ] } },
{ "type": "Feature", "properties": { "FacilityID": 106758, "FacilityName": "Verizon Wireless - EWAUNA (ID:1313593)", "SiteAddress": "2054 WASHBURN WAY KLAMATH FALLS Oregon 97603", "Latitude": 42.2101, "Longitude": -121.7595, "ObjectId": 197 }, "geometry": { "type": "Point", "coordinates": [ -121.7595, 42.2101 ] } },
{ "type": "Feature", "properties": { "FacilityID": 69584, "FacilityName": "MILE HI TIRE & SERVICE", "SiteAddress": "17685 HWY 395 HWY LAKEVIEW Oregon 97630", "Latitude": 42.210365, "Longitude": -120.35515, "ObjectId": 198 }, "geometry": { "type": "Point", "coordinates": [ -120.35515, 42.210365 ] } },
{ "type": "Feature", "properties": { "FacilityID": 121696, "FacilityName": "PACIFICORP", "SiteAddress": "252 E NEVADA ST ASHLAND Oregon 97520", "Latitude": 42.2104, "Longitude": -122.7077, "ObjectId": 199 }, "geometry": { "type": "Point", "coordinates": [ -122.7077, 42.2104 ] } },
{ "type": "Feature", "properties": { "FacilityID": 81637, "FacilityName": "BI-MART CORPORATION", "SiteAddress": "1920 WASHBURN WAY KLAMATH FALLS Oregon 97603", "Latitude": 42.2108, "Longitude": -121.7582, "ObjectId": 200 }, "geometry": { "type": "Point", "coordinates": [ -121.7582, 42.2108 ] } },
{ "type": "Feature", "properties": { "FacilityID": 112609, "FacilityName": "BROOKINGS CITY OF", "SiteAddress": "1675 OLD HWY 101 BROOKINGS Oregon 97415", "Latitude": 42.0721, "Longitude": -124.3112, "ObjectId": 201 }, "geometry": { "type": "Point", "coordinates": [ -124.3112, 42.0721 ] } },
{ "type": "Feature", "properties": { "FacilityID": 51840, "FacilityName": "DA-TONE ROCK PRODUCTS", "SiteAddress": "98109 N BANK CHETCO RIVER RD RD BROOKINGS Oregon 97415", "Latitude": 42.0726, "Longitude": -124.2561, "ObjectId": 202 }, "geometry": { "type": "Point", "coordinates": [ -124.2561, 42.0726 ] } },
{ "type": "Feature", "properties": { "FacilityID": 6041, "FacilityName": "ODOT", "SiteAddress": "7150 Old Highway 99 S ASHLAND Oregon 97520", "Latitude": 42.0726, "Longitude": -122.6042, "ObjectId": 203 }, "geometry": { "type": "Point", "coordinates": [ -122.6042, 42.0726 ] } },
{ "type": "Feature", "properties": { "FacilityID": 17855, "FacilityName": "BROOKINGS CITY OF", "SiteAddress": "98115 North Bank Chetco River Ro. RD BROOKINGS Oregon 97415", "Latitude": 42.0736, "Longitude": -124.2556, "ObjectId": 204 }, "geometry": { "type": "Point", "coordinates": [ -124.2556, 42.0736 ] } },
{ "type": "Feature", "properties": { "FacilityID": 112619, "FacilityName": "BROOKINGS CITY OF", "SiteAddress": "99232 NORTH BANK CHETCO RD RD N BROOKINGS Oregon 97415", "Latitude": 42.0742, "Longitude": -124.2137, "ObjectId": 205 }, "geometry": { "type": "Point", "coordinates": [ -124.2137, 42.0742 ] } },
{ "type": "Feature", "properties": { "FacilityID": 110847, "FacilityName": "PACIFICORP", "SiteAddress": "Harpold RD MALIN Oregon 97632", "Latitude": 42.0764, "Longitude": -121.4988, "ObjectId": 206 }, "geometry": { "type": "Point", "coordinates": [ -121.4988, 42.0764 ] } },
{ "type": "Feature", "properties": { "FacilityID": 122490, "FacilityName": "US CELLULAR - TAKILMA 573387", "SiteAddress": "7525 Takilma RD CAVE JUNCTION Oregon 97523", "Latitude": 42.0767, "Longitude": -123.5988, "ObjectId": 207 }, "geometry": { "type": "Point", "coordinates": [ -123.5988, 42.0767 ] } },
{ "type": "Feature", "properties": { "FacilityID": 124382, "FacilityName": "T-Mobile US", "SiteAddress": "7525 Takilma RD CAVE JUNCTION Oregon 975239826", "Latitude": 42.0768, "Longitude": -123.5989, "ObjectId": 208 }, "geometry": { "type": "Point", "coordinates": [ -123.5989, 42.0768 ] } },
{ "type": "Feature", "properties": { "FacilityID": 109057, "FacilityName": "Verizon Wireless -BUCK BUTTE (ID:1402859)", "SiteAddress": "16449 HARPOLD RD MERRILL Oregon 97632", "Latitude": 42.0769, "Longitude": -121.4994, "ObjectId": 209 }, "geometry": { "type": "Point", "coordinates": [ -121.4994, 42.0769 ] } },
{ "type": "Feature", "properties": { "FacilityID": 119600, "FacilityName": "NEW CINGULAR WIRELESS PCS, LLC - USID111871", "SiteAddress": "17345 CARPENTERVILLE RD BROOKINGS Oregon 97415", "Latitude": 42.0773, "Longitude": -124.3123, "ObjectId": 210 }, "geometry": { "type": "Point", "coordinates": [ -124.3123, 42.0773 ] } },
{ "type": "Feature", "properties": { "FacilityID": 44351, "FacilityName": "BROOKINGS FLYING CLUB", "SiteAddress": "17330 PARKVIEW DR BROOKINGS Oregon 97415", "Latitude": 42.077665, "Longitude": -124.291391, "ObjectId": 211 }, "geometry": { "type": "Point", "coordinates": [ -124.291391, 42.077665 ] } },
{ "type": "Feature", "properties": { "FacilityID": 30014, "FacilityName": "SOUTH COAST LUMBER CO", "SiteAddress": "17345 CARPENTERVILLE RD BROOKINGS Oregon 97415", "Latitude": 42.0778, "Longitude": -124.3103, "ObjectId": 212 }, "geometry": { "type": "Point", "coordinates": [ -124.3103, 42.0778 ] } },
{ "type": "Feature", "properties": { "FacilityID": 122283, "FacilityName": "US CELLULAR - CARPENTERVILLE 573353", "SiteAddress": "17344 CARPENTERVILLE RD BROOKINGS Oregon 97415", "Latitude": 42.078009, "Longitude": -124.313401, "ObjectId": 213 }, "geometry": { "type": "Point", "coordinates": [ -124.313401, 42.078009 ] } },
{ "type": "Feature", "properties": { "FacilityID": 109053, "FacilityName": "Verizon Wireless - SHY CREEK (ID:1495053)", "SiteAddress": "17345 CARPENTERVILLE RD BROOKINGS Oregon 97415", "Latitude": 42.0782, "Longitude": -124.3135, "ObjectId": 214 }, "geometry": { "type": "Point", "coordinates": [ -124.3135, 42.0782 ] } },
{ "type": "Feature", "properties": { "FacilityID": 112610, "FacilityName": "BROOKINGS CITY OF", "SiteAddress": "17431 PARK SPUR RD S BROOKINGS Oregon 97415", "Latitude": 42.0787, "Longitude": -124.3199, "ObjectId": 215 }, "geometry": { "type": "Point", "coordinates": [ -124.3199, 42.0787 ] } },
{ "type": "Feature", "properties": { "FacilityID": 24492, "FacilityName": "BPA", "SiteAddress": "16401 MAUPIN RD MALIN Oregon 97632", "Latitude": 42.079444, "Longitude": -121.390833, "ObjectId": 216 }, "geometry": { "type": "Point", "coordinates": [ -121.390833, 42.079444 ] } },
{ "type": "Feature", "properties": { "FacilityID": 91234, "FacilityName": "NATIONAL WEATHER SERVICE", "SiteAddress": "0 USFR 300 ASHLAND Oregon 97520", "Latitude": 42.0811, "Longitude": -122.7175, "ObjectId": 217 }, "geometry": { "type": "Point", "coordinates": [ -122.7175, 42.0811 ] } },
{ "type": "Feature", "properties": { "FacilityID": 84649, "FacilityName": "NEW CINGULAR WIRELESS PCS, LLC - USID100934", "SiteAddress": "4405 MT ASHLAND SKI RD ASHLAND Oregon 97520", "Latitude": 42.0812, "Longitude": -122.7199, "ObjectId": 218 }, "geometry": { "type": "Point", "coordinates": [ -122.7199, 42.0812 ] } },
{ "type": "Feature", "properties": { "FacilityID": 51748, "FacilityName": "CURRY TRANSFER & RECYCLING", "SiteAddress": "17498 CARPENTERVILLE RD BROOKINGS Oregon 97415", "Latitude": 42.0816, "Longitude": -124.3132, "ObjectId": 219 }, "geometry": { "type": "Point", "coordinates": [ -124.3132, 42.0816 ] } },
{ "type": "Feature", "properties": { "FacilityID": 121350, "FacilityName": "NEW CINGULAR WIRELESS PCS, LLC - USID111832", "SiteAddress": "6409 TAKILMA RD CAVE JUNCTION Oregon 97523", "Latitude": 42.0838, "Longitude": -123.6132, "ObjectId": 220 }, "geometry": { "type": "Point", "coordinates": [ -123.6132, 42.0838 ] } },
{ "type": "Feature", "properties": { "FacilityID": 22400, "FacilityName": "Day Wireless Systems - Bucks Butte", "SiteAddress": "2.3 MI E OF HARPOLD RD MALIN Oregon 97632", "Latitude": 42.091979, "Longitude": -121.444217, "ObjectId": 221 }, "geometry": { "type": "Point", "coordinates": [ -121.444217, 42.091979 ] } },
{ "type": "Feature", "properties": { "FacilityID": 124422, "FacilityName": "T-Mobile US", "SiteAddress": "15000 Hamaker%20Mtn RD KENO Oregon 97627", "Latitude": 42.092, "Longitude": -122.0441, "ObjectId": 222 }, "geometry": { "type": "Point", "coordinates": [ -122.0441, 42.092 ] } },
{ "type": "Feature", "properties": { "FacilityID": 24496, "FacilityName": "BPA", "SiteAddress": "BUCK BUTTE T40S R12ESECT20 MALIN Oregon 97632", "Latitude": 42.0921, "Longitude": -121.4445, "ObjectId": 223 }, "geometry": { "type": "Point", "coordinates": [ -121.4445, 42.0921 ] } },
{ "type": "Feature", "properties": { "FacilityID": 21608, "FacilityName": "CAVE JUNCTION CITY OF", "SiteAddress": "468 JUNCTION AVE S. AVE S CAVE JUNCTION Oregon 97523", "Latitude": 42.0937, "Longitude": -123.3841, "ObjectId": 224 }, "geometry": { "type": "Point", "coordinates": [ -123.3841, 42.0937 ] } },
{ "type": "Feature", "properties": { "FacilityID": 124261, "FacilityName": "Chase Microwave Site", "SiteAddress": "Chase Mountain Road KENO Oregon 97627", "Latitude": 42.09438, "Longitude": -121.99368, "ObjectId": 225 }, "geometry": { "type": "Point", "coordinates": [ -121.99368, 42.09438 ] } },
{ "type": "Feature", "properties": { "FacilityID": 95530, "FacilityName": "Verizon Wireless - CHASE MTN (ID:4517486)", "SiteAddress": "SW On Chase Mtn 4 MI SW of Keno KENO Oregon 97627", "Latitude": 42.0946, "Longitude": -121.9936, "ObjectId": 226 }, "geometry": { "type": "Point", "coordinates": [ -121.9936, 42.0946 ] } },
{ "type": "Feature", "properties": { "FacilityID": 122290, "FacilityName": "US CELLULAR - CHASE MTN 349459", "SiteAddress": "15000 Hamaker Mtn RD KENO Oregon 97627", "Latitude": 42.0951, "Longitude": -121.9941, "ObjectId": 227 }, "geometry": { "type": "Point", "coordinates": [ -121.9941, 42.0951 ] } },
{ "type": "Feature", "properties": { "FacilityID": 125561, "FacilityName": "New Cingular Wireless PCS, LLC - USID280028", "SiteAddress": "1500 Hamaker Mountain RD KENO Oregon 97627", "Latitude": 42.0952, "Longitude": -121.9944, "ObjectId": 228 }, "geometry": { "type": "Point", "coordinates": [ -121.9944, 42.0952 ] } },
{ "type": "Feature", "properties": { "FacilityID": 123097, "FacilityName": "US CELLULAR - KENO/HWY 66 349345", "SiteAddress": "Southerly end of Stukel Mtn, Approx. 4.5 mi NW MERRILL Oregon 97633", "Latitude": 42.0968, "Longitude": -121.6338, "ObjectId": 229 }, "geometry": { "type": "Point", "coordinates": [ -121.6338, 42.0968 ] } },
{ "type": "Feature", "properties": { "FacilityID": 119573, "FacilityName": "NEW CINGULAR WIRELESS PCS, LLC - USID111368", "SiteAddress": "SEC 23 T40S R14W TAX LOT 2300 BROOKINGS Oregon 97415", "Latitude": 42.0987, "Longitude": -124.3251, "ObjectId": 230 }, "geometry": { "type": "Point", "coordinates": [ -124.3251, 42.0987 ] } },
{ "type": "Feature", "properties": { "FacilityID": 121463, "FacilityName": "NEW CINGULAR WIRELESS PCS, LLC - USID99485", "SiteAddress": "1 STUKEL MTN KLAMATH FALLS Oregon 97603", "Latitude": 42.1006, "Longitude": -121.6356, "ObjectId": 231 }, "geometry": { "type": "Point", "coordinates": [ -121.6356, 42.1006 ] } },
{ "type": "Feature", "properties": { "FacilityID": 122483, "FacilityName": "US CELLULAR - STUKEL 349405", "SiteAddress": "14130 Matney RD KLAMATH FALLS Oregon 97603", "Latitude": 42.1041, "Longitude": -121.7055, "ObjectId": 232 }, "geometry": { "type": "Point", "coordinates": [ -121.7055, 42.1041 ] } },
{ "type": "Feature", "properties": { "FacilityID": 82541, "FacilityName": "NATIONAL PARK SERVICE", "SiteAddress": "19000 CAVES HWY HWY CAVE JUNCTION Oregon 97523", "Latitude": 42.1083, "Longitude": -123.406291, "ObjectId": 233 }, "geometry": { "type": "Point", "coordinates": [ -123.406291, 42.1083 ] } },
{ "type": "Feature", "properties": { "FacilityID": 75918, "FacilityName": "Desertlake LLC", "SiteAddress": "12750 KENO WORDEN RD. RD W KENO Oregon 97601", "Latitude": 42.109022, "Longitude": -121.919535, "ObjectId": 234 }, "geometry": { "type": "Point", "coordinates": [ -121.919535, 42.109022 ] } },
{ "type": "Feature", "properties": { "FacilityID": 6040, "FacilityName": "ODOT", "SiteAddress": "15225 HWY 66 ASHLAND Oregon 97520", "Latitude": 42.1093, "Longitude": -122.4015, "ObjectId": 235 }, "geometry": { "type": "Point", "coordinates": [ -122.4015, 42.1093 ] } },
{ "type": "Feature", "properties": { "FacilityID": 124177, "FacilityName": "Alfred A. Loeb State Park", "SiteAddress": "99917 N North Bank Chetco River RD N BROOKINGS Oregon 97415", "Latitude": 42.1123, "Longitude": -124.1879, "ObjectId": 236 }, "geometry": { "type": "Point", "coordinates": [ -124.1879, 42.1123 ] } },
{ "type": "Feature", "properties": { "FacilityID": 125519, "FacilityName": "Well 9", "SiteAddress": "Bldg 245 N F ST LAKEVIEW Oregon 97630", "Latitude": 42.1127, "Longitude": -120.2139, "ObjectId": 237 }, "geometry": { "type": "Point", "coordinates": [ -120.2139, 42.1127 ] } },
{ "type": "Feature", "properties": { "FacilityID": 42234, "FacilityName": "LAKE COUNTY SCHOOL DISTRICT 7", "SiteAddress": "92398 WATER USERS LA S LAKEVIEW Oregon 97630", "Latitude": 42.113549, "Longitude": -120.493217, "ObjectId": 238 }, "geometry": { "type": "Point", "coordinates": [ -120.493217, 42.113549 ] } },
{ "type": "Feature", "properties": { "FacilityID": 122322, "FacilityName": "US CELLULAR - EMIGRANT LAKE 349416", "SiteAddress": "700 Buckhorn Springs RD S ASHLAND Oregon 97520", "Latitude": 42.1159, "Longitude": -122.5594, "ObjectId": 239 }, "geometry": { "type": "Point", "coordinates": [ -122.5594, 42.1159 ] } },
{ "type": "Feature", "properties": { "FacilityID": 122457, "FacilityName": "US CELLULAR - RUCH 349305", "SiteAddress": "9858 Upper Applegate RD JACKSONVILLE Oregon 97530", "Latitude": 42.1203, "Longitude": -123.0829, "ObjectId": 240 }, "geometry": { "type": "Point", "coordinates": [ -123.0829, 42.1203 ] } },
{ "type": "Feature", "properties": { "FacilityID": 122397, "FacilityName": "US CELLULAR - MIDLAND 349462", "SiteAddress": "451 Cross RD KLAMATH FALLS Oregon 97603", "Latitude": 42.1204, "Longitude": -121.819, "ObjectId": 241 }, "geometry": { "type": "Point", "coordinates": [ -121.819, 42.1204 ] } },
{ "type": "Feature", "properties": { "FacilityID": 106798, "FacilityName": "Verizon Wireless - MIDLAND (ID:1349120)", "SiteAddress": "451 CROSS RD KLAMATH FALLS Oregon 97601", "Latitude": 42.1204, "Longitude": -121.8189, "ObjectId": 242 }, "geometry": { "type": "Point", "coordinates": [ -121.8189, 42.1204 ] } },
{ "type": "Feature", "properties": { "FacilityID": 79986, "FacilityName": "JC BOYLE", "SiteAddress": "26020 HWY 66 KENO Oregon 97627", "Latitude": 42.120889, "Longitude": -122.048137, "ObjectId": 243 }, "geometry": { "type": "Point", "coordinates": [ -122.048137, 42.120889 ] } },
{ "type": "Feature", "properties": { "FacilityID": 117907, "FacilityName": "NEW CINGULAR WIRELESS PCS, LLC - USID102715", "SiteAddress": "HWY 97 @ LWR KLAMATH HWY MIDLAND Oregon 97634", "Latitude": 42.1211, "Longitude": -121.8219, "ObjectId": 244 }, "geometry": { "type": "Point", "coordinates": [ -121.8219, 42.1211 ] } },
{ "type": "Feature", "properties": { "FacilityID": 125829, "FacilityName": "JC Boyle Dam Removal", "SiteAddress": "26020 KENO Oregon 97627", "Latitude": 42.1215, "Longitude": -122.0482, "ObjectId": 245 }, "geometry": { "type": "Point", "coordinates": [ -122.0482, 42.1215 ] } },
{ "type": "Feature", "properties": { "FacilityID": 87592, "FacilityName": "NEW CINGULAR WIRELESS PCS LLC - USID99721", "SiteAddress": "18908 TIMEUS RANCH RD BROOKINGS Oregon 97415", "Latitude": 42.1228, "Longitude": -124.3, "ObjectId": 246 }, "geometry": { "type": "Point", "coordinates": [ -124.3, 42.1228 ] } },
{ "type": "Feature", "properties": { "FacilityID": 71945, "FacilityName": "Ziply Fiber - 963-51306-83928", "SiteAddress": "CAPE FERELLO RD & HWY 101 BROOKINGS Oregon 97415", "Latitude": 42.124685, "Longitude": -124.328519, "ObjectId": 247 }, "geometry": { "type": "Point", "coordinates": [ -124.328519, 42.124685 ] } },
{ "type": "Feature", "properties": { "FacilityID": 82565, "FacilityName": "BRIDGEVIEW WINERY", "SiteAddress": "4210 HOLLAND LOOP RD CAVE JUNCTION Oregon 97523", "Latitude": 42.1256, "Longitude": -123.5943, "ObjectId": 248 }, "geometry": { "type": "Point", "coordinates": [ -123.5943, 42.1256 ] } },
{ "type": "Feature", "properties": { "FacilityID": 100979, "FacilityName": "Ed Stuab & Sons Petroleum", "SiteAddress": "15475 Highway 66 HWY KENO Oregon 97627", "Latitude": 42.1259, "Longitude": -121.9309, "ObjectId": 249 }, "geometry": { "type": "Point", "coordinates": [ -121.9309, 42.1259 ] } },
{ "type": "Feature", "properties": { "FacilityID": 21501, "FacilityName": "Ziply Fiber - 963-51306-96743", "SiteAddress": "5.5 MI NE OF BROOKINGS BROOKINGS Oregon 97415", "Latitude": 42.1266, "Longitude": -124.2273, "ObjectId": 250 }, "geometry": { "type": "Point", "coordinates": [ -124.2273, 42.1266 ] } },
{ "type": "Feature", "properties": { "FacilityID": 44380, "FacilityName": "HOLLAND STORE", "SiteAddress": "7251 HOLLAND LOOP RD CAVE JUNCTION Oregon 97523", "Latitude": 42.1269, "Longitude": -123.5385, "ObjectId": 251 }, "geometry": { "type": "Point", "coordinates": [ -123.5385, 42.1269 ] } },
{ "type": "Feature", "properties": { "FacilityID": 110572, "FacilityName": "PACIFICORP", "SiteAddress": "26020 HWY 66 HWY KENO Oregon 97627", "Latitude": 42.12855, "Longitude": -122.001669, "ObjectId": 252 }, "geometry": { "type": "Point", "coordinates": [ -122.001669, 42.12855 ] } },
{ "type": "Feature", "properties": { "FacilityID": 101623, "FacilityName": "Johnston Welding & Fabrication LLC", "SiteAddress": "251 BURCH DR CAVE JUNCTION Oregon 97523", "Latitude": 42.1295, "Longitude": -123.6689, "ObjectId": 253 }, "geometry": { "type": "Point", "coordinates": [ -123.6689, 42.1295 ] } },
{ "type": "Feature", "properties": { "FacilityID": 67807, "FacilityName": "KENO RURAL FIRE PROTECTION DIST", "SiteAddress": "14800 PUCKETT RD KENO Oregon 97627", "Latitude": 42.1336, "Longitude": -121.924, "ObjectId": 254 }, "geometry": { "type": "Point", "coordinates": [ -121.924, 42.1336 ] } },
{ "type": "Feature", "properties": { "FacilityID": 109044, "FacilityName": "Verizon Wireless - KENO (ID:1859489)", "SiteAddress": "17610 FREIGHT LANE RD KENO Oregon 97627", "Latitude": 42.1355, "Longitude": -121.954, "ObjectId": 255 }, "geometry": { "type": "Point", "coordinates": [ -121.954, 42.1355 ] } },
{ "type": "Feature", "properties": { "FacilityID": 54902, "FacilityName": "LANGELL VALLEY IRRIGATION DIST", "SiteAddress": "9787 E LANGELL VALLEY RD BONANZA Oregon 97623", "Latitude": 42.1373, "Longitude": -121.2737, "ObjectId": 256 }, "geometry": { "type": "Point", "coordinates": [ -121.2737, 42.1373 ] } },
{ "type": "Feature", "properties": { "FacilityID": 42122, "FacilityName": "KLAMATH COUNTY SCHOOL DISTRICT", "SiteAddress": "8245 HWY 39 HWY KLAMATH FALLS Oregon 97603", "Latitude": 42.143071, "Longitude": -121.698105, "ObjectId": 257 }, "geometry": { "type": "Point", "coordinates": [ -121.698105, 42.143071 ] } },
{ "type": "Feature", "properties": { "FacilityID": 97824, "FacilityName": "PAP MACHINERY-KENWORTH", "SiteAddress": "9135 HWY 97 S KLAMATH FALLS Oregon 97603", "Latitude": 42.143185, "Longitude": -121.810035, "ObjectId": 258 }, "geometry": { "type": "Point", "coordinates": [ -121.810035, 42.143185 ] } },
{ "type": "Feature", "properties": { "FacilityID": 122326, "FacilityName": "US CELLULAR - FALCON HEIGHTS 349385", "SiteAddress": "8609 McLaughlin LA KLAMATH FALLS Oregon 97601", "Latitude": 42.1482, "Longitude": -121.9291, "ObjectId": 259 }, "geometry": { "type": "Point", "coordinates": [ -121.9291, 42.1482 ] } },
{ "type": "Feature", "properties": { "FacilityID": 118179, "FacilityName": "NEW CINGULAR WIRELESS PCS, LLC - USID103588", "SiteAddress": "8609 MCLAUGHLIN LA KLAMATH FALLS Oregon 97601", "Latitude": 42.1485, "Longitude": -121.9292, "ObjectId": 260 }, "geometry": { "type": "Point", "coordinates": [ -121.9292, 42.1485 ] } },
{ "type": "Feature", "properties": { "FacilityID": 119571, "FacilityName": "NEW CINGULAR WIRELESS PCS, LLC - USID101015", "SiteAddress": "95511 W HUCKLEBERRY RDGE BROOKINGS Oregon 97415", "Latitude": 42.1532, "Longitude": -124.3553, "ObjectId": 261 }, "geometry": { "type": "Point", "coordinates": [ -124.3553, 42.1532 ] } },
{ "type": "Feature", "properties": { "FacilityID": 95785, "FacilityName": "MACYS FLYING SERVICE", "SiteAddress": "7900 HOMEDALE RD KLAMATH FALLS Oregon 97603", "Latitude": 42.1537, "Longitude": -121.7311, "ObjectId": 262 }, "geometry": { "type": "Point", "coordinates": [ -121.7311, 42.1537 ] } },
{ "type": "Feature", "properties": { "FacilityID": 123588, "FacilityName": "Station 2", "SiteAddress": "40 Neil RD ASHLAND Oregon 97520", "Latitude": 42.154055, "Longitude": -122.628409, "ObjectId": 263 }, "geometry": { "type": "Point", "coordinates": [ -122.628409, 42.154055 ] } },
{ "type": "Feature", "properties": { "FacilityID": 19142, "FacilityName": "T-Mobile USA, Inc.", "SiteAddress": "0.5 MI S OFF I-5 ON ASHLAND Oregon 97520", "Latitude": 42.1548, "Longitude": -122.5545, "ObjectId": 264 }, "geometry": { "type": "Point", "coordinates": [ -122.5545, 42.1548 ] } },
{ "type": "Feature", "properties": { "FacilityID": 21037, "FacilityName": "AT&T Enterprises: Oregon - OR2270", "SiteAddress": "5235 ST HWY 66 ASHLAND Oregon 97520", "Latitude": 42.1557, "Longitude": -122.6283, "ObjectId": 265 }, "geometry": { "type": "Point", "coordinates": [ -122.6283, 42.1557 ] } },
{ "type": "Feature", "properties": { "FacilityID": 112078, "FacilityName": "Verizon Wireless - EMIGRANT (ID:1403422)", "SiteAddress": "CORP RANCH RD TALENT Oregon 97520", "Latitude": 42.1558, "Longitude": -122.6207, "ObjectId": 266 }, "geometry": { "type": "Point", "coordinates": [ -122.6207, 42.1558 ] } },
{ "type": "Feature", "properties": { "FacilityID": 124086, "FacilityName": "Verizon Wireless - CHOKE_CHERRY - B (ID:616274271)", "SiteAddress": "380 S Stage RD CAVE JUNCTION Oregon 97523", "Latitude": 42.1564, "Longitude": -123.643, "ObjectId": 267 }, "geometry": { "type": "Point", "coordinates": [ -123.643, 42.1564 ] } },
{ "type": "Feature", "properties": { "FacilityID": 122285, "FacilityName": "US CELLULAR - CAVE JUNCTION 573365", "SiteAddress": "380 S Old State RD CAVE JUNCTION Oregon 97523", "Latitude": 42.1565, "Longitude": -123.6433, "ObjectId": 268 }, "geometry": { "type": "Point", "coordinates": [ -123.6433, 42.1565 ] } },
{ "type": "Feature", "properties": { "FacilityID": 86141, "FacilityName": "NEW CINGULAR WIRELESS PCS, LLC - USID99517", "SiteAddress": "380 OLD STAGE RD CAVE JUNCTION Oregon 97523", "Latitude": 42.1565, "Longitude": -123.643, "ObjectId": 269 }, "geometry": { "type": "Point", "coordinates": [ -123.643, 42.1565 ] } },
{ "type": "Feature", "properties": { "FacilityID": 124380, "FacilityName": "T-Mobile US", "SiteAddress": "380 S Stage RD S CAVE JUNCTION Oregon 975239005", "Latitude": 42.1565, "Longitude": -123.643, "ObjectId": 270 }, "geometry": { "type": "Point", "coordinates": [ -123.643, 42.1565 ] } },
{ "type": "Feature", "properties": { "FacilityID": 98798, "FacilityName": "LAKEVIEW DISTRICT BLM", "SiteAddress": "17863 AIRPORT RD LAKEVIEW Oregon 97630", "Latitude": 42.1568, "Longitude": -120.406, "ObjectId": 271 }, "geometry": { "type": "Point", "coordinates": [ -120.406, 42.1568 ] } },
{ "type": "Feature", "properties": { "FacilityID": 4534, "FacilityName": "PRODUCTION METAL FORMING", "SiteAddress": "8888 W hwy 66 HWY W KLAMATH FALLS Oregon 97601", "Latitude": 42.157091, "Longitude": -121.860209, "ObjectId": 272 }, "geometry": { "type": "Point", "coordinates": [ -121.860209, 42.157091 ] } },
{ "type": "Feature", "properties": { "FacilityID": 66983, "FacilityName": "ILLINOIS VALLEY", "SiteAddress": "681 CAVES HWY CAVE JUNCTION Oregon 97523", "Latitude": 42.1592, "Longitude": -123.6355, "ObjectId": 273 }, "geometry": { "type": "Point", "coordinates": [ -123.6355, 42.1592 ] } },
{ "type": "Feature", "properties": { "FacilityID": 120943, "FacilityName": "OR-8103_Charter Communications", "SiteAddress": "287 Hamilton AVE CAVE JUNCTION Oregon 97523", "Latitude": 42.1602, "Longitude": -123.6468, "ObjectId": 274 }, "geometry": { "type": "Point", "coordinates": [ -123.6468, 42.1602 ] } },
{ "type": "Feature", "properties": { "FacilityID": 20505, "FacilityName": "OREGON AIR NATIONAL GUARD", "SiteAddress": "173 RD FW ORANG KLAMATH FALLS Oregon 97603", "Latitude": 42.1607, "Longitude": -121.7479, "ObjectId": 275 }, "geometry": { "type": "Point", "coordinates": [ -121.7479, 42.1607 ] } },
{ "type": "Feature", "properties": { "FacilityID": 54039, "FacilityName": "Illinois Valley Building Supply", "SiteAddress": "434 Caves HWY CAVE JUNCTION Oregon 97523", "Latitude": 42.1611, "Longitude": -123.6397, "ObjectId": 276 }, "geometry": { "type": "Point", "coordinates": [ -123.6397, 42.1611 ] } },
{ "type": "Feature", "properties": { "FacilityID": 33597, "FacilityName": "LAKE COUNTY AIRPORT", "SiteAddress": "17819 N AIRPORT RD N LAKEVIEW Oregon 97630", "Latitude": 42.161102, "Longitude": -120.399071, "ObjectId": 277 }, "geometry": { "type": "Point", "coordinates": [ -120.399071, 42.161102 ] } },
{ "type": "Feature", "properties": { "FacilityID": 121736, "FacilityName": "PACIFICORP", "SiteAddress": "540 JOE WRIGHT RD KLAMATH FALLS Oregon 97603", "Latitude": 42.1619, "Longitude": -121.79093, "ObjectId": 278 }, "geometry": { "type": "Point", "coordinates": [ -121.79093, 42.1619 ] } },
{ "type": "Feature", "properties": { "FacilityID": 18333, "FacilityName": "KLAMATH FALLS CITY OF", "SiteAddress": "6775 ARNOLD AVE KLAMATH FALLS Oregon 97603", "Latitude": 42.1619, "Longitude": -121.7478, "ObjectId": 279 }, "geometry": { "type": "Point", "coordinates": [ -121.7478, 42.1619 ] } },
{ "type": "Feature", "properties": { "FacilityID": 48849, "FacilityName": "ODOT", "SiteAddress": "202 CAVE HWY CAVE JUNCTION Oregon 97523", "Latitude": 42.162434, "Longitude": -123.644839, "ObjectId": 280 }, "geometry": { "type": "Point", "coordinates": [ -123.644839, 42.162434 ] } },
{ "type": "Feature", "properties": { "FacilityID": 44188, "FacilityName": "Ziply Fiber - 018-20592-10503", "SiteAddress": "330 Caves AVE CAVE JUNCTION Oregon 97523", "Latitude": 42.163, "Longitude": -123.6456, "ObjectId": 281 }, "geometry": { "type": "Point", "coordinates": [ -123.6456, 42.163 ] } },
{ "type": "Feature", "properties": { "FacilityID": 106497, "FacilityName": "NAPA AUTO PARTS OF CAVE JUNCTION", "SiteAddress": "327 S REDWOOD HWY CAVE JUNCTION Oregon 97523", "Latitude": 42.1633, "Longitude": -123.6463, "ObjectId": 282 }, "geometry": { "type": "Point", "coordinates": [ -123.6463, 42.1633 ] } },
{ "type": "Feature", "properties": { "FacilityID": 24099, "FacilityName": "KLAMATH IRRIGATION DISTRICT", "SiteAddress": "6640 KID LA KLAMATH FALLS Oregon 97603", "Latitude": 42.163493, "Longitude": -121.685618, "ObjectId": 283 }, "geometry": { "type": "Point", "coordinates": [ -121.685618, 42.163493 ] } },
{ "type": "Feature", "properties": { "FacilityID": 54716, "FacilityName": "Century Aviation Services", "SiteAddress": "2901 Airport WAY KLAMATH FALLS Oregon 97603", "Latitude": 42.1644, "Longitude": -121.7467, "ObjectId": 284 }, "geometry": { "type": "Point", "coordinates": [ -121.7467, 42.1644 ] } },
{ "type": "Feature", "properties": { "FacilityID": 44056, "FacilityName": "LAKEVIEW REDI MIX CO", "SiteAddress": "18154 KADRMAS RD LAKEVIEW Oregon 97630", "Latitude": 42.1647, "Longitude": -120.3542, "ObjectId": 285 }, "geometry": { "type": "Point", "coordinates": [ -120.3542, 42.1647 ] } },
{ "type": "Feature", "properties": { "FacilityID": 59016, "FacilityName": "TAYLOR SAUSAGE INC", "SiteAddress": "525 WATKINS ST W CAVE JUNCTION Oregon 97523", "Latitude": 42.1651, "Longitude": -123.6521, "ObjectId": 286 }, "geometry": { "type": "Point", "coordinates": [ -123.6521, 42.1651 ] } },
{ "type": "Feature", "properties": { "FacilityID": 110998, "FacilityName": "PACIFICORP", "SiteAddress": "431 OLD STAGE RD CAVE JUNCTION Oregon 97523", "Latitude": 42.1656, "Longitude": -123.6385, "ObjectId": 287 }, "geometry": { "type": "Point", "coordinates": [ -123.6385, 42.1656 ] } },
{ "type": "Feature", "properties": { "FacilityID": 42725, "FacilityName": "THREE RIVERS-JOSEPHINE CO SD", "SiteAddress": "101 S JUNCTION AVE CAVE JUNCTION Oregon 97523", "Latitude": 42.1672, "Longitude": -123.6424, "ObjectId": 288 }, "geometry": { "type": "Point", "coordinates": [ -123.6424, 42.1672 ] } },
{ "type": "Feature", "properties": { "FacilityID": 42730, "FacilityName": "THREE RIVERS-JOSEPHINE CO SD", "SiteAddress": "625 E RIVER ST CAVE JUNCTION Oregon 97523", "Latitude": 42.1673, "Longitude": -123.6317, "ObjectId": 289 }, "geometry": { "type": "Point", "coordinates": [ -123.6317, 42.1673 ] } },
{ "type": "Feature", "properties": { "FacilityID": 50367, "FacilityName": "Ed Staub & Sons Petroleum Inc.", "SiteAddress": "6303 WASHBURN AVE KLAMATH FALLS Oregon 97601", "Latitude": 42.167539, "Longitude": -121.757011, "ObjectId": 290 }, "geometry": { "type": "Point", "coordinates": [ -121.757011, 42.167539 ] } },
{ "type": "Feature", "properties": { "FacilityID": 54716, "FacilityName": "Century Aviation Services", "SiteAddress": "2850 Stinson WAY KLAMATH FALLS Oregon 97603", "Latitude": 42.1677, "Longitude": -121.7466, "ObjectId": 291 }, "geometry": { "type": "Point", "coordinates": [ -121.7466, 42.1677 ] } },
{ "type": "Feature", "properties": { "FacilityID": 121694, "FacilityName": "PACIFICORP", "SiteAddress": "4940 WEYERHAEUSER RD KLAMATH FALLS Oregon 97601", "Latitude": 42.168123, "Longitude": -121.822507, "ObjectId": 292 }, "geometry": { "type": "Point", "coordinates": [ -121.822507, 42.168123 ] } },
{ "type": "Feature", "properties": { "FacilityID": 42731, "FacilityName": "THREE RIVERS-JOSEPHINE CO SD", "SiteAddress": "520 W RIVER ST CAVE JUNCTION Oregon 97523", "Latitude": 42.1699, "Longitude": -123.653, "ObjectId": 293 }, "geometry": { "type": "Point", "coordinates": [ -123.653, 42.1699 ] } },
{ "type": "Feature", "properties": { "FacilityID": 16462, "FacilityName": "COLLINS PRODUCTS LLC", "SiteAddress": "6410 Highway 66 HWY KLAMATH FALLS Oregon 97601", "Latitude": 42.1703, "Longitude": -121.821, "ObjectId": 294 }, "geometry": { "type": "Point", "coordinates": [ -121.821, 42.1703 ] } },
{ "type": "Feature", "properties": { "FacilityID": 104005, "FacilityName": "KLAMATH COUNTY", "SiteAddress": "6100 WESGO DR KLAMATH FALLS Oregon 97601", "Latitude": 42.1709, "Longitude": -121.7612, "ObjectId": 295 }, "geometry": { "type": "Point", "coordinates": [ -121.7612, 42.1709 ] } },
{ "type": "Feature", "properties": { "FacilityID": 119785, "FacilityName": "USDA FOREST SERVICE", "SiteAddress": "6300 Brett Way KLAMATH FALLS Oregon 97603", "Latitude": 42.1709, "Longitude": -121.7361, "ObjectId": 296 }, "geometry": { "type": "Point", "coordinates": [ -121.7361, 42.1709 ] } },
{ "type": "Feature", "properties": { "FacilityID": 78152, "FacilityName": "BLM LAKEVIEW INTERAGENCY OFFIC", "SiteAddress": "1301 S G ST S LAKEVIEW Oregon 97630", "Latitude": 42.1711, "Longitude": -120.3461, "ObjectId": 297 }, "geometry": { "type": "Point", "coordinates": [ -120.3461, 42.1711 ] } },
{ "type": "Feature", "properties": { "FacilityID": 78152, "FacilityName": "BLM LAKEVIEW INTERAGENCY OFFIC", "SiteAddress": "1301 S G ST LAKEVIEW Oregon 97630", "Latitude": 42.1712, "Longitude": -120.3463, "ObjectId": 298 }, "geometry": { "type": "Point", "coordinates": [ -120.3463, 42.1712 ] } },
{ "type": "Feature", "properties": { "FacilityID": 121283, "FacilityName": "Perimeter Solutions LP", "SiteAddress": "6300 SUMMERS LA KLAMATH FALLS Oregon 97603", "Latitude": 42.1714, "Longitude": -121.7374, "ObjectId": 299 }, "geometry": { "type": "Point", "coordinates": [ -121.7374, 42.1714 ] } },
{ "type": "Feature", "properties": { "FacilityID": 124178, "FacilityName": "Imerys Perlite USA - Klamath Falls, OR", "SiteAddress": "5855 Washburn Way WAY KLAMATH FALLS Oregon 97603", "Latitude": 42.1718, "Longitude": -121.7543, "ObjectId": 300 }, "geometry": { "type": "Point", "coordinates": [ -121.7543, 42.1718 ] } },
{ "type": "Feature", "properties": { "FacilityID": 65911, "FacilityName": "First Student, Inc. #20237", "SiteAddress": "813 Mason Way, Unit 2 WAY MEDFORD Oregon 97501", "Latitude": 42.3475, "Longitude": -122.9003, "ObjectId": 301 }, "geometry": { "type": "Point", "coordinates": [ -122.9003, 42.3475 ] } },
{ "type": "Feature", "properties": { "FacilityID": 122379, "FacilityName": "US CELLULAR - LONE PINE 349374", "SiteAddress": "1900 N Keene Way DR MEDFORD Oregon 97501", "Latitude": 42.3475, "Longitude": -122.8497, "ObjectId": 302 }, "geometry": { "type": "Point", "coordinates": [ -122.8497, 42.3475 ] } },
{ "type": "Feature", "properties": { "FacilityID": 99398, "FacilityName": "TARGET CORPORATION", "SiteAddress": "2000 CRATER LAKE HWY MEDFORD Oregon 97504", "Latitude": 42.3476, "Longitude": -122.8776, "ObjectId": 303 }, "geometry": { "type": "Point", "coordinates": [ -122.8776, 42.3476 ] } },
{ "type": "Feature", "properties": { "FacilityID": 106775, "FacilityName": "Verizon Wireless - HONEYSUCKLE (ID:1879483)", "SiteAddress": "1900 CRATER LAKE AVE MEDFORD Oregon 97504", "Latitude": 42.3477, "Longitude": -122.8551, "ObjectId": 304 }, "geometry": { "type": "Point", "coordinates": [ -122.8551, 42.3477 ] } },
{ "type": "Feature", "properties": { "FacilityID": 119574, "FacilityName": "NEW CINGULAR WIRELESS PCS, LLC - USID84504", "SiteAddress": "1900 N KEENE WAY DR MEDFORD Oregon 97504", "Latitude": 42.3477, "Longitude": -122.8498, "ObjectId": 305 }, "geometry": { "type": "Point", "coordinates": [ -122.8498, 42.3477 ] } },
{ "type": "Feature", "properties": { "FacilityID": 125040, "FacilityName": "Colving Oil I LLC 3119", "SiteAddress": "6410 Williams HWY GRANTS PASS Oregon 97526", "Latitude": 42.3478, "Longitude": -123.3329, "ObjectId": 306 }, "geometry": { "type": "Point", "coordinates": [ -123.3329, 42.3478 ] } },
{ "type": "Feature", "properties": { "FacilityID": 14782, "FacilityName": "ED'S POINT S TIRE", "SiteAddress": "2390 N PACIFIC HWY MEDFORD Oregon 97501", "Latitude": 42.348, "Longitude": -122.8871, "ObjectId": 307 }, "geometry": { "type": "Point", "coordinates": [ -122.8871, 42.348 ] } },
{ "type": "Feature", "properties": { "FacilityID": 121642, "FacilityName": "OVS", "SiteAddress": "640A MASON WAY MEDFORD Oregon 97501", "Latitude": 42.3482, "Longitude": -122.898, "ObjectId": 308 }, "geometry": { "type": "Point", "coordinates": [ -122.898, 42.3482 ] } },
{ "type": "Feature", "properties": { "FacilityID": 124638, "FacilityName": "T-Mobile US", "SiteAddress": "570 Mason WAY MEDFORD Oregon 97501", "Latitude": 42.3482, "Longitude": -122.8968, "ObjectId": 309 }, "geometry": { "type": "Point", "coordinates": [ -122.8968, 42.3482 ] } },
{ "type": "Feature", "properties": { "FacilityID": 121424, "FacilityName": "NEW CINGULAR WIRELESS PCS, LLC - USID50854", "SiteAddress": "578 MASON WAY MEDFORD Oregon 97501", "Latitude": 42.3482, "Longitude": -122.8952, "ObjectId": 310 }, "geometry": { "type": "Point", "coordinates": [ -122.8952, 42.3482 ] } },
{ "type": "Feature", "properties": { "FacilityID": 5099, "FacilityName": "ROSEBURG FOREST PRODUCTS CO", "SiteAddress": "2685 N PACIFIC HWY MEDFORD Oregon 97501014", "Latitude": 42.3482, "Longitude": -122.8916, "ObjectId": 311 }, "geometry": { "type": "Point", "coordinates": [ -122.8916, 42.3482 ] } },
{ "type": "Feature", "properties": { "FacilityID": 89251, "FacilityName": "THREE RIVERS-JOSEPHINE CO SD", "SiteAddress": "8551 NEW HOPE RD GRANTS PASS Oregon 97527", "Latitude": 42.3484, "Longitude": -123.3348, "ObjectId": 312 }, "geometry": { "type": "Point", "coordinates": [ -123.3348, 42.3484 ] } },
{ "type": "Feature", "properties": { "FacilityID": 123366, "FacilityName": "Ferguson Waterworks - 1538", "SiteAddress": "960 MASON WAY MEDFORD Oregon 97501", "Latitude": 42.3486, "Longitude": -122.9061, "ObjectId": 313 }, "geometry": { "type": "Point", "coordinates": [ -122.9061, 42.3486 ] } },
{ "type": "Feature", "properties": { "FacilityID": 125365, "FacilityName": "GTS Interior Supply", "SiteAddress": "578 Mason Way WAY MEDFORD Oregon 97501", "Latitude": 42.3486, "Longitude": -122.8958, "ObjectId": 314 }, "geometry": { "type": "Point", "coordinates": [ -122.8958, 42.3486 ] } },
{ "type": "Feature", "properties": { "FacilityID": 114822, "FacilityName": "WESTERN BEVERAGE", "SiteAddress": "910 MASON WAY MEDFORD Oregon 97501", "Latitude": 42.3488, "Longitude": -122.9026, "ObjectId": 315 }, "geometry": { "type": "Point", "coordinates": [ -122.9026, 42.3488 ] } },
{ "type": "Feature", "properties": { "FacilityID": 416, "FacilityName": "THE WILLAMETTE VALLEY COMPANY LLC", "SiteAddress": "736 MASON WAY MEDFORD Oregon 97501", "Latitude": 42.3488, "Longitude": -122.8995, "ObjectId": 316 }, "geometry": { "type": "Point", "coordinates": [ -122.8995, 42.3488 ] } },
{ "type": "Feature", "properties": { "FacilityID": 105528, "FacilityName": "FERGUSON ENTERPRISES #3714", "SiteAddress": "2132 SAGE RD MEDFORD Oregon 975011345", "Latitude": 42.3488, "Longitude": -122.8989, "ObjectId": 317 }, "geometry": { "type": "Point", "coordinates": [ -122.8989, 42.3488 ] } },
{ "type": "Feature", "properties": { "FacilityID": 122407, "FacilityName": "US CELLULAR - MURPHY 573348", "SiteAddress": "7304 N Applegate RD MURPHY Oregon 97533", "Latitude": 42.3492, "Longitude": -123.3249, "ObjectId": 318 }, "geometry": { "type": "Point", "coordinates": [ -123.3249, 42.3492 ] } },
{ "type": "Feature", "properties": { "FacilityID": 125047, "FacilityName": "Colvin Oil I LLC 3160", "SiteAddress": "2232 BIDDLE RD MEDFORD Oregon 97501", "Latitude": 42.3492, "Longitude": -122.8737, "ObjectId": 319 }, "geometry": { "type": "Point", "coordinates": [ -122.8737, 42.3492 ] } },
{ "type": "Feature", "properties": { "FacilityID": 124428, "FacilityName": "T-Mobile US", "SiteAddress": "1705 Panorama DR MEDFORD Oregon 97504", "Latitude": 42.3492, "Longitude": -122.8117, "ObjectId": 320 }, "geometry": { "type": "Point", "coordinates": [ -122.8117, 42.3492 ] } },
{ "type": "Feature", "properties": { "FacilityID": 21626, "FacilityName": "SUBURBAN PROPANE LP", "SiteAddress": "2175 JOSEPH ST MEDFORD Oregon 97501", "Latitude": 42.349489, "Longitude": -122.902115, "ObjectId": 321 }, "geometry": { "type": "Point", "coordinates": [ -122.902115, 42.349489 ] } },
{ "type": "Feature", "properties": { "FacilityID": 53998, "FacilityName": "Woodgrain", "SiteAddress": "2194 SAGE RD RD MEDFORD Oregon 97501", "Latitude": 42.3495, "Longitude": -122.8988, "ObjectId": 322 }, "geometry": { "type": "Point", "coordinates": [ -122.8988, 42.3495 ] } },
{ "type": "Feature", "properties": { "FacilityID": 90570, "FacilityName": "NEW CINGULAR WIRELESS PCS, LLC - USID15496", "SiteAddress": "2222 TABLE ROCK RD MEDFORD Oregon 97501", "Latitude": 42.3496, "Longitude": -122.8791, "ObjectId": 323 }, "geometry": { "type": "Point", "coordinates": [ -122.8791, 42.3496 ] } },
{ "type": "Feature", "properties": { "FacilityID": 118128, "FacilityName": "Verizon Wireless - FOOTHILL (ID:10890859)", "SiteAddress": "1705 PANORAMA DR MEDFORD Oregon 97504", "Latitude": 42.35, "Longitude": -122.811, "ObjectId": 324 }, "geometry": { "type": "Point", "coordinates": [ -122.811, 42.35 ] } },
{ "type": "Feature", "properties": { "FacilityID": 43807, "FacilityName": "GRANGE COOP SUPPLY ASSN", "SiteAddress": "2833 N PACIFIC HWY MEDFORD Oregon 97501", "Latitude": 42.3501, "Longitude": -122.895, "ObjectId": 325 }, "geometry": { "type": "Point", "coordinates": [ -122.895, 42.3501 ] } },
{ "type": "Feature", "properties": { "FacilityID": 43933, "FacilityName": "FARWEST STEEL CORP", "SiteAddress": "2260 SAGE RD MEDFORD Oregon 97501", "Latitude": 42.3505, "Longitude": -122.8982, "ObjectId": 326 }, "geometry": { "type": "Point", "coordinates": [ -122.8982, 42.3505 ] } },
{ "type": "Feature", "properties": { "FacilityID": 27553, "FacilityName": "DRAKE'S PAINT & SUPPLY", "SiteAddress": "2929 N PACIFIC HWY MEDFORD Oregon 97501", "Latitude": 42.3507, "Longitude": -122.8964, "ObjectId": 327 }, "geometry": { "type": "Point", "coordinates": [ -122.8964, 42.3507 ] } },
{ "type": "Feature", "properties": { "FacilityID": 61190, "FacilityName": "CARESTREAM HEALTH INC", "SiteAddress": "2221 JOSEPH ST MEDFORD Oregon 97501", "Latitude": 42.3511, "Longitude": -122.9022, "ObjectId": 328 }, "geometry": { "type": "Point", "coordinates": [ -122.9022, 42.3511 ] } },
{ "type": "Feature", "properties": { "FacilityID": 102829, "FacilityName": "COLLINS MANUFACTURING CORP", "SiteAddress": "301 EHRMAN WAY MEDFORD Oregon 97501", "Latitude": 42.3518, "Longitude": -122.9046, "ObjectId": 329 }, "geometry": { "type": "Point", "coordinates": [ -122.9046, 42.3518 ] } },
{ "type": "Feature", "properties": { "FacilityID": 17317, "FacilityName": "FRED MEYER STORES INC", "SiteAddress": "2424 CRATER%20LAKE HWY MEDFORD Oregon 97504", "Latitude": 42.352, "Longitude": -122.871, "ObjectId": 330 }, "geometry": { "type": "Point", "coordinates": [ -122.871, 42.352 ] } },
{ "type": "Feature", "properties": { "FacilityID": 3355, "FacilityName": "INDUSTRIAL SOURCE", "SiteAddress": "3100 N PACIFIC HWY MEDFORD Oregon 97501", "Latitude": 42.3525, "Longitude": -122.8977, "ObjectId": 331 }, "geometry": { "type": "Point", "coordinates": [ -122.8977, 42.3525 ] } },
{ "type": "Feature", "properties": { "FacilityID": 126060, "FacilityName": "Verizon Wireless - Murphy - A (ID:625142059)", "SiteAddress": "7304 N Applegate RD GRANTS PASS Oregon 97572", "Latitude": 42.3526, "Longitude": -123.3193, "ObjectId": 332 }, "geometry": { "type": "Point", "coordinates": [ -123.3193, 42.3526 ] } },
{ "type": "Feature", "properties": { "FacilityID": 68729, "FacilityName": "FAA", "SiteAddress": "SEC 13 & 18 MEDFORD Oregon 97501", "Latitude": 42.353075, "Longitude": -122.993228, "ObjectId": 333 }, "geometry": { "type": "Point", "coordinates": [ -122.993228, 42.353075 ] } },
{ "type": "Feature", "properties": { "FacilityID": 108106, "FacilityName": "ESTES EXPRESS LINES", "SiteAddress": "2309 SAGE RD MEDFORD Oregon 97504", "Latitude": 42.35311, "Longitude": -122.89658, "ObjectId": 334 }, "geometry": { "type": "Point", "coordinates": [ -122.89658, 42.35311 ] } },
{ "type": "Feature", "properties": { "FacilityID": 5372, "FacilityName": "Freightliner Northwest", "SiteAddress": "2343 BIDDLE RD MEDFORD Oregon 97504", "Latitude": 42.3532, "Longitude": -122.8762, "ObjectId": 335 },